~VERSION INFORMATION 
VERS  .    2.0                                     :CWLS Log ASCII Standard - VERSION 2.0
WRAP  .    NO                                      :One Line per Depth step
PROD  .    Schlumberger Technology Corp.           :LAS Producer
PROG  .    Horizon LASWriter 6.2.64464.3100        :LAS Program name and version
SOURCE.    1-Log[5]/Up                             :Run&Pass Information
CREA  .    01/05/2017                              :LAS Creation date {MM/DD/YYYY}
#--------------------------------------------------
~WELL INFORMATION 
#MNEM           .UNIT                      DATA            :DESCRIPTION
#----            ------          --------------            -----------------------------
STRT            .m                     16.91640            :START DEPTH
STOP            .m                   1777.89840            :STOP DEPTH
STEP            .m                       0.1524            :STEP
NULL            .                       -999.25            :NULL VALUE
COMP            .                      YPF S.A.            :COMPANY
WELL            .                 YPF.SC.LC-941            :WELL NAME
FLD             .                 LOMAS DEL CUY            :FIELD NAME
RIGN            .                                          :Rig Name
RIGTYP          .                                          :Rig Type
SON             .                                          :Service Order Number
SRVC            .                  Schlumberger            :SERVICE COMPANY
DATE            .                    01/05/2017            :LOG DATE(Composite Date for Composite LAP) (MM/DD/YYYY)
CLAB            .                    Provincia:            :County Label
CNTY            .                    SANTA CRUZ            :COUNTY
SLAB            .                          UWI:            :State/Province Label
STAT            .                 No disponible            :STATE or PROVINCE
PROV            .                 No disponible            :STATE or PROVINCE
CTRY            .                     ARGENTINA            :COUNTRY
CONT_REGION     .                                          :Continent Region
SECT            .                       RIGLESS            :Section
TOWN            .                NT Ground Level G.L       :Township
RANG            .                M.R Drilling Floor D.F    :Range
API             .                                          :API NUMBER
UWI             .                                          :UNIQUE WELL ID
LUL             .                  CANADON SECO            :Logging Unit Location
LUN             .                          7008            :Logging Unit Number
LOC             .                          ARCS            :FIELD LOCATION
FL1             .                X: 4.856.702,40           :Field Location Line 1
FL2             .                Y: 2.494.852,45           :Field Location Line 2
LATI            .deg                 0° 0' 0" N            :LATITUDE
LONG            .deg                 0° 0' 0" E            :LONGITUDE
PDAT            .                            GL            :Local Permanent Datum
LMF             .                            GL            :Logging Measured From
APD             .m                      0.00000            :Elevation of Depth Reference (LMF) Above Permanent Datum
EPD             .m                    573.57000            :Elevation of Permanent Datum (PDAT) above Mean Sea Level
EKB             .m                      5.30000            :Elevation of Kelly Bushing Above Permanent Datum
EDF             .m                      5.30000            :Elevation of Drill Floor Above Permanent Datum
EGL             .m                      0.00000            :Elevation of Ground Level Above Permanent Datum
ECF             .m                      -999.25            :Elevation of Casing Flange above Permanent Datum
#--------------------------------------------------
~CURVE INFORMATION
#MNEM           .UNIT                  API CODE            :DESCRIPTION
#----            ------          --------------            -----------------------------
DEPT            .m                                         :                                                        Depth Index
CFTC            .1/s                                       :        (HGNS-H)                (6in)                   Corrected Far Thermal Count Rate
GR              .gAPI                                      :        (HGNS-H)                (6in)                   Gamma Ray
TNPH            .m3/m3                                     :        (HGNS-H)                (6in)                   Thermal Neutron Porosity (Ratio Method) in Selected Lithology
CBL             .mV                                        :        (ASLT-A)                (6in)                   CBL Amplitude
CBLF            .mV                                        :        (ASLT-A)                (6in)                   CBL Amplitude (Fluid Compensated)
TT              .us                                        :        (ASLT-A)                (6in)                   Transit Time for CBL
CCL             .                                          :        (CAL-YA)                (1in)                   Casing Collar Locator Amplitude
#-------------------------------------------------------------
#            DEPT         CFTC           GR         TNPH          CBL         CBLF           TT          CCL 
#                     (HGNS-H)     (HGNS-H)     (HGNS-H)     (ASLT-A)     (ASLT-A)     (ASLT-A)     (CAL-YA) 
#                                                                                                            
#                        (6in)        (6in)        (6in)        (6in)        (6in)        (6in)        (1in) 
~ASCII
# ...
        253.74600    224.58240     43.48051      0.80440     62.94622     50.35698    281.11060      0.00798
        253.89840    197.91180     45.17300      1.35454     62.26663     49.81330    281.13200      0.02822
        254.05080    197.10510     45.17292      1.47532     61.23381     48.98705    281.10020      0.03565
        254.20320    192.26230     40.98203      1.50845     60.54177     48.43341    281.15650      0.01246
        254.35560    217.19280     35.05831      0.85315     60.65633     48.52507    281.11050      0.01980
        254.50800    227.64340     31.95562      0.72799     61.21133     48.96906    281.24080      0.01375
        254.66040    231.67410     32.43920      0.71235     61.15552     48.92442    281.10790      0.01517
        254.81280    223.65310     31.87506      0.80053     59.90581     47.92465    281.03510      0.01234
        254.96520    232.87320     35.54198      0.73916     57.96765     46.37412    280.97800      0.00441
        255.11760    240.10960     35.54191      0.65439     55.83944     44.67155    281.00200      0.02530
        255.27000    236.06260     37.47610      0.69587     53.58348     42.86678    280.91440      0.03117
        255.42240    213.99430     36.91185      0.94506     51.41964     41.13572    280.87040      0.02101
        255.57480    200.30950     38.60440      1.20529     50.42489     40.33991    280.79510      0.02089
        255.72720    215.60780     38.28217      0.86646     50.65216     40.52173    280.81330      0.02106
        255.87960    227.55370     36.58976      0.73692     51.00729     40.80584    280.87950      0.01123
        256.03200    247.67830     32.35852      0.54405     51.30649     41.04519    280.85150      0.02002
        256.18440    234.80040     37.23431      0.68125     51.54525     41.23620    280.83120      0.02054
        256.33680    223.75800     36.34785      0.82078     51.54109     41.23287    280.88560      0.00487
        256.48920    226.17620     38.04030      0.82406     51.41175     41.12940    280.98700      0.01613
        256.64160    232.61230     34.93759      0.70631     51.13575     40.90860    281.02120      0.01940
        256.79400    244.55340     35.58242      0.62207     51.05833     40.84666    281.07000      0.01178
        256.94640    228.79300     34.45398      0.78347     51.63504     41.30804    281.01490      0.02235
        257.09880    224.76940     32.35847      0.89964     52.40331     41.92265    281.12390      0.01027
        257.25120    225.57580     32.03590      0.83336     52.19573     41.75658    281.06070      0.01595
        257.40360    215.46980     34.01061      0.99550     50.82901     40.66321    280.95380      0.00598
        257.55600    238.82400     37.79844      0.62502     49.11838     39.29470    280.95390      0.00596
        257.70840    245.29450     38.12093      0.56947     47.44297     37.95438    280.87650      0.01027
        257.86080    254.49130     36.42839      0.51424     46.16346     36.93077    280.82070      0.02451
        258.01320    235.15890     34.45383      0.68913     45.42783     36.34227    280.87710      0.01910
        258.16560    219.85680     37.67754      0.91825     45.17240     36.13792    280.84620      0.01059
        258.31800    230.89330     40.49835      0.81045     45.42517     36.34014    280.76730      0.01273
        258.47040    230.08490     43.31918      0.85818     45.47840     36.38272    280.83000      0.03019
        258.62280    242.16700     40.61927      0.75205     44.68853     35.75082    280.73930      0.01613
        258.77520    245.84760     39.32971      0.68882     43.05452     34.44361    280.66580      0.01559
        258.92760    247.48370     36.79090      0.67573     40.80647     32.64517    280.55250      0.01675
        259.08000    265.18230     38.48345      0.56195     38.62016     30.89612    280.49400      0.01790
        259.23240    276.25310     41.70737      0.50708     36.58734     29.26987    280.42340      0.01674
        259.38480    286.69910     43.68225      0.46333     34.92109     27.93687    280.45030      0.02080
        259.53720    283.48760     42.27173      0.48031     34.30320     27.44256    280.30400      0.02094
        259.68960    286.24090     37.11344      0.49127     34.30857     27.44686    280.45370      0.03004
        259.84200    294.30910     35.98511      0.46149     34.15909     27.32727    280.54780      0.00911
        259.99440    299.14570     34.57485      0.44269     33.59877     26.87901    280.41400      0.03035
        260.14680    301.77750     37.79877      0.44194     32.87724     26.30179    280.30800      0.01397
        260.29920    279.22380     36.95240      0.48569     32.16844     25.73475    280.37230      0.02813
        260.45160    256.77820     38.92694      0.55437     31.32445     25.05956    280.39560      0.03238
        260.60400    220.54390     35.38089      0.84785     30.31204     24.24963    280.44270      0.01439
        260.75640    220.42410     32.55995      0.88958     30.06278     24.05023    280.36150      0.01430
        260.90880    219.50430     30.86754      0.84867     31.07559     24.86047    280.37240      0.02757
        261.06120    229.95830     31.31079      0.72290     32.10512     25.68410    280.50250      0.01678
        261.21360    235.70880     33.64811      0.66695     32.36388     25.89111    280.39430      0.01796
        261.36600    229.25910     34.49433      0.74754     32.31588     25.85271    280.46430      0.00816
        261.51840    216.38820     39.57167      0.88009     31.89805     25.51844    280.39770      0.01604
        261.67080    215.25250     41.82840      0.81712     30.18874     24.15099    280.41950      0.03337
        261.82320    218.48570     40.98219      0.73766     27.34032     21.87226    280.44580      0.02054
        261.97560    236.99930     36.18680      0.57662     24.19941     19.35953    280.38420      0.01161
        262.12800    220.42980     36.50924      0.79082     20.91595     16.73276    280.21690      0.02639
        262.28040    197.89610     33.68828      1.18149     17.90971     14.32777    280.36860      0.01211
        262.43280    180.18950     35.94514      1.85371     15.84602     12.67682    280.47480      0.01541
        262.58520    191.45370     30.46456      1.39104     14.44579     11.55663    280.38730      0.01816
        262.73760    209.83570     34.69571      0.89126     13.47425     10.77940    280.46810      0.01994
        262.89000    209.02040     34.41354      0.86715     13.27471     10.61977    280.41580      0.00890
        263.04240    202.57820     41.50588      1.05180     13.80750     11.04600    280.60250      0.01989
        263.19480    211.56880     47.99371      0.93237     14.98536     11.98829    280.51600      0.01210
        263.34720    214.44640     50.53247      0.95336     16.53872     13.23097    280.51660      0.01176
        263.49960    212.03820     49.24273      1.04087     17.87527     14.30021    280.64060     -0.00299
        263.65200    212.82270     43.60123      1.01800     19.20871     15.36697    280.59200      0.01125
        263.80440    221.10490     40.49833      0.89186     19.91564     15.93251    280.78170      0.02030
        263.95680    233.97710     41.14314      0.70475     22.98811     18.39049    280.96330      0.03236
        264.10920    222.70320     41.14318      0.96181     25.59742     20.47794    287.36580      0.01556
        264.26160    226.37340     42.27141      0.96940     20.67109     16.53687    284.80050     -0.01846
        264.41400    231.24200     42.59393      0.98661     16.04710     12.83768    284.78900     -0.04857
        264.56640    226.44390     36.95233      1.09985     15.66854     12.53483    285.00960     -0.82480
        264.71880    239.34790     36.38815      0.93280     14.42639     11.54111    285.06270      0.04048
        264.87120    242.53720     33.48671      0.87117     11.98450      9.58760    287.91730      0.02188
