~VERSION INFORMATION 
VERS  .    2.0                                     :CWLS Log ASCII Standard - VERSION 2.0
WRAP  .    NO                                      :One Line per Depth step
PROD  .    Schlumberger Technology Corp.           :LAS Producer
PROG  .    Horizon LASWriter 6.2.64464.3100        :LAS Program name and version
SOURCE.    1-Log[5]/Up                             :Run&Pass Information
CREA  .    01/05/2017                              :LAS Creation date {MM/DD/YYYY}
#--------------------------------------------------
~WELL INFORMATION 
#MNEM           .UNIT                      DATA            :DESCRIPTION
#----            ------          --------------            -----------------------------
STRT            .m                     16.91640            :START DEPTH
STOP            .m                   1777.89840            :STOP DEPTH
STEP            .m                       0.1524            :STEP
NULL            .                       -999.25            :NULL VALUE
COMP            .                      YPF S.A.            :COMPANY
WELL            .                 YPF.SC.LC-941            :WELL NAME
FLD             .                 LOMAS DEL CUY            :FIELD NAME
RIGN            .                                          :Rig Name
RIGTYP          .                                          :Rig Type
SON             .                                          :Service Order Number
SRVC            .                  Schlumberger            :SERVICE COMPANY
DATE            .                    01/05/2017            :LOG DATE(Composite Date for Composite LAP) (MM/DD/YYYY)
CLAB            .                    Provincia:            :County Label
CNTY            .                    SANTA CRUZ            :COUNTY
SLAB            .                          UWI:            :State/Province Label
STAT            .                 No disponible            :STATE or PROVINCE
PROV            .                 No disponible            :STATE or PROVINCE
CTRY            .                     ARGENTINA            :COUNTRY
CONT_REGION     .                                          :Continent Region
SECT            .                       RIGLESS            :Section
TOWN            .                NT Ground Level G.L       :Township
RANG            .                M.R Drilling Floor D.F    :Range
API             .                                          :API NUMBER
UWI             .                                          :UNIQUE WELL ID
LUL             .                  CANADON SECO            :Logging Unit Location
LUN             .                          7008            :Logging Unit Number
LOC             .                          ARCS            :FIELD LOCATION
FL1             .                X: 4.856.702,40           :Field Location Line 1
FL2             .                Y: 2.494.852,45           :Field Location Line 2
LATI            .deg                 0° 0' 0" N            :LATITUDE
LONG            .deg                 0° 0' 0" E            :LONGITUDE
PDAT            .                            GL            :Local Permanent Datum
LMF             .                            GL            :Logging Measured From
APD             .m                      0.00000            :Elevation of Depth Reference (LMF) Above Permanent Datum
EPD             .m                    573.57000            :Elevation of Permanent Datum (PDAT) above Mean Sea Level
EKB             .m                      5.30000            :Elevation of Kelly Bushing Above Permanent Datum
EDF             .m                      5.30000            :Elevation of Drill Floor Above Permanent Datum
EGL             .m                      0.00000            :Elevation of Ground Level Above Permanent Datum
ECF             .m                      -999.25            :Elevation of Casing Flange above Permanent Datum
#--------------------------------------------------
~CURVE INFORMATION
#MNEM           .UNIT                  API CODE            :DESCRIPTION
#----            ------          --------------            -----------------------------
DEPT            .m                                         :                                                        Depth Index
CFTC            .1/s                                       :        (HGNS-H)                (6in)                   Corrected Far Thermal Count Rate
GR              .gAPI                                      :        (HGNS-H)                (6in)                   Gamma Ray
TNPH            .m3/m3                                     :        (HGNS-H)                (6in)                   Thermal Neutron Porosity (Ratio Method) in Selected Lithology
CBL             .mV                                        :        (ASLT-A)                (6in)                   CBL Amplitude
CBLF            .mV                                        :        (ASLT-A)                (6in)                   CBL Amplitude (Fluid Compensated)
TT              .us                                        :        (ASLT-A)                (6in)                   Transit Time for CBL
CCL             .                                          :        (CAL-YA)                (1in)                   Casing Collar Locator Amplitude
#-------------------------------------------------------------
#            DEPT         CFTC           GR         TNPH          CBL         CBLF           TT          CCL 
#                     (HGNS-H)     (HGNS-H)     (HGNS-H)     (ASLT-A)     (ASLT-A)     (ASLT-A)     (CAL-YA) 
#                                                                                                            
#                        (6in)        (6in)        (6in)        (6in)        (6in)        (6in)        (1in) 
~ASCII
# ...
        603.35160    300.18020     51.68147      0.56536     27.97035     22.37628    279.80570      0.02267
        603.50400    320.31970     58.32172      0.51806     26.69144     21.35315    279.13790      0.00329
        603.65640    334.01650     55.12482      0.49248     27.81765     22.25412    287.93780     -0.00043
        603.80880    335.84040     57.65440      0.49729     30.78846     24.63077    284.40840      0.01035
        603.96120    322.12060     52.48980      0.51782     31.32463     25.05970    284.47840      0.10975
        604.11360    326.16310     55.93291      0.48757     29.20145     23.36116    284.11630     -0.33426
        604.26600    294.49340     56.07336      0.58446     25.38390     20.30712    284.21570      0.01393
        604.41840    315.24710     55.08978      0.49257     23.28129     18.62504    288.56120      0.00603
        604.57080    307.18080     54.31695      0.49934     25.62798     20.50238    282.80180     -0.00345
        604.72320    327.33490     54.07102      0.46320     28.14198     22.51358    279.40170      0.02207
        604.87560    300.63390     57.23309      0.53437     27.97815     22.38252    279.48760      0.01377
        605.02800    285.33040     58.00560      0.58722     26.70491     21.36393    279.44860     -0.01724
        605.18040    280.49480     55.79226      0.62944     25.70620     20.56496    279.23270      0.02391
        605.33280    289.67470     55.33532      0.61369     24.96494     19.97195    279.27330     -0.00613
        605.48520    303.01430     54.28136      0.55245     23.40191     18.72153    279.24320      0.04329
        605.63760    290.11140     53.29752      0.64255     21.14905     16.91924    278.78830      0.02476
        605.79000    286.07310     56.24898      0.67736     19.31953     15.45562    278.82270      0.01753
        605.94240    286.43230     55.96819      0.67530     18.04515     14.43612    278.81420     -0.02964
        606.09480    292.66890     59.16545      0.59968     16.81252     13.45001    278.92230     -0.01526
        606.24720    294.28320     55.23028      0.56215     15.72840     12.58272    278.82310      0.03064
        606.39960    291.04620     54.35169      0.55182     15.25944     12.20755    278.71390      0.02759
        606.55200    282.74040     50.24114      0.59394     15.76907     12.61526    279.10530      0.01924
        606.70440    284.38040     47.28992      0.59443     16.17847     12.94278    279.03650      0.03430
        606.85680    287.60150     49.25749      0.58090     16.19143     12.95314    278.96510      0.02096
        607.00920    301.41490     51.40078      0.55082     16.59437     13.27550    279.03970      0.02640
        607.16160    293.32580     59.27050      0.60121     16.93250     13.54600    278.99240      0.02321
        607.31400    285.28820     64.92702      0.64511     17.42609     13.94087    279.13010      0.02422
        607.46640    295.30850     65.17291      0.56181     17.73033     14.18427    279.35670      0.03383
        607.61880    306.02120     63.10023      0.50309     17.21808     13.77446    278.99560     -0.01487
        607.77120    290.71080     54.98420      0.51595     17.07971     13.66377    279.27640      0.01251
        607.92360    249.62450     54.98426      0.70934     18.66278     14.93023    279.26880      0.03737
        608.07600    233.04880     52.45477      0.88894     20.96319     16.77056    279.61660      0.01124
        608.22840    232.23650     57.61961      0.86770     21.53971     17.23177    279.32080      0.03891
        608.38080    260.42940     56.63544      0.61534     21.09737     16.87790    279.45800      0.01588
        608.53320    253.42590     57.54871      0.71071     20.27219     16.21776    279.36300      0.05263
        608.68560    275.40210     54.31654      0.58334     18.47774     14.78219    279.22660     -0.02121
        608.83800    260.89940     56.03803      0.69125     16.61955     13.29564    279.27410      0.02399
        608.99040    268.14550     55.30039      0.64913     15.64304     12.51443    279.05600      0.03889
        609.14280    236.54240     57.54877      1.00142     16.27251     13.01801    279.40690      0.00959
        609.29520    253.92980     56.95175      0.79599     18.00606     14.40484    279.56890      0.02160
        609.44760    257.96480     58.91912      0.82387     19.63605     15.70884    279.49330      0.02431
        609.60000    279.68420     61.62441      0.62949     20.52728     16.42183    279.42900      0.01207
        609.75240    277.82900     61.97568      0.67113     20.84894     16.67915    279.26430      0.03858
        609.90480    288.28400     62.08128      0.62769     21.36125     17.08900    279.47270      0.02516
        610.05720    304.38360     63.06500      0.55828     21.71640     17.37312    279.73220      0.02948
        610.20960    297.93210     67.98367      0.56664     21.86784     17.49427    279.41200      0.05192
        610.36200    289.87020     62.08110      0.59770     23.00806     18.40644    279.43670      0.01851
        610.51440    272.97120     54.70309      0.66966     24.77847     19.82278    279.58350      0.01459
        610.66680    263.90340     47.07919      0.71637     25.51281     20.41024    279.83230     -0.01005
        610.81920    249.86700     52.13829      0.78873     24.42043     19.53634    279.91020      0.01993
        610.97160    274.85020     54.14091      0.58398     21.09299     16.87439    279.75870      0.02731
        611.12400    292.57430     56.84610      0.51562     16.51750     13.21400    279.27070      0.02169
        611.27640    329.20900     54.38676      0.44969     13.21051     10.56841    279.39380      0.04338
        611.42880    322.29360     61.69488      0.47918     12.02763      9.62210    279.24750      0.00834
        611.58120    340.02940     59.48148      0.44810     12.47747      9.98198    279.53950      0.02892
        611.73360    328.72360     66.85989      0.46897     13.56073     10.84859    279.49770      0.03825
        611.88600    308.23680     61.48400      0.51470     15.01516     12.01213    279.54690     -0.01303
        612.03840    295.67100     72.05955      0.53870     17.88030     14.30424    279.13610      0.07275
        612.19080    294.05930     68.86221      0.53385     21.35996     17.08797    279.52290      0.00988
        612.34320    311.77140     68.12431      0.48575     23.18138     18.54510    279.75090      0.01312
        612.49560    310.83570     61.48382      0.48915     23.27690     18.62152    279.97960      0.03407
        612.64800    298.74630     62.57267      0.53511     22.77295     18.21836    279.96330      0.03872
        612.80040    306.02340     67.49172      0.52513     22.08051     17.66441    279.67970      0.02421
        612.95280    304.22390     66.75401      0.54320     21.49447     17.19557    279.76740      0.01855
        613.10520    318.72090     69.84577      0.49834     21.22664     16.98132    279.68720      0.03148
        613.25760    321.96220     67.87831      0.49711     21.42724     17.14179    279.70760     -0.00577
        613.41000    334.05720     67.38645      0.48051     22.14812     17.71850    279.99300      0.02045
        613.56240    341.10760     65.91104      0.46732     23.80911     19.04729    279.84690      0.01481
        613.71480    349.96340     64.57552      0.46329     26.36104     21.08883    279.96910      0.02419
        613.86720    347.55490     65.31326      0.49652     29.18492     23.34794    279.87980      0.02137
        614.01960    354.23940     60.88631      0.49344     32.02991     25.62393    279.93690      0.03630
        614.17200    356.07000     58.63781      0.51098     34.56865     27.65492    280.05400      0.00883
        614.32440    354.41810     53.96502      0.53917     36.09292     28.87434    280.13180      0.02188
        614.47680    356.83370     54.45709      0.54196     36.88832     29.51066    280.11120     -0.00443
