~VERSION INFORMATION 
VERS  .    2.0                                     :CWLS Log ASCII Standard - VERSION 2.0
WRAP  .    NO                                      :One Line per Depth step
PROD  .    Schlumberger Technology Corp.           :LAS Producer
PROG  .    Horizon LASWriter 8.0.95333.3100        :LAS Program name and version
SOURCE.    CARRERA_02: CBL-VDL-NL-GR-Log[4]/Up     :Run&Pass Information
CREA  .    06/11/2018                              :LAS Creation date {MM/DD/YYYY}
#--------------------------------------------------
~WELL INFORMATION 
#MNEM           .UNIT                      DATA            :DESCRIPTION
#----            ------          --------------            -----------------------------
STRT            .m                    454.91400            :START DEPTH
STOP            .m                   2158.89840            :STOP DEPTH
STEP            .m                       0.1524            :STEP
NULL            .                       -999.25            :NULL VALUE
COMP            .                       YPF S.A            :COMPANY
WELL            .                YPF.SC.ECH-212            :WELL NAME
FLD             .                ESTANCIA CHOLITA          :FIELD NAME
RIGN            .                                          :Rig Name
RIGTYP          .                                          :Rig Type
SON             .                 TICKET NUMBER            :Service Order Number
SRVC            .                  Schlumberger            :SERVICE COMPANY
DATE            .                    06/08/2018            :LOG DATE(Composite Date for Composite LAP) (MM/DD/YYYY)
CLAB            .                       County:            :County Label
CNTY            .                    SANTA CRUZ            :COUNTY
SLAB            .                          UWI:            :State/Province Label
STAT            .                AR030000968000            :STATE or PROVINCE
PROV            .                AR030000968000            :STATE or PROVINCE
CTRY            .                     ARGENTINA            :COUNTRY
CONT_REGION     .                                          :Continent Region
SECT            .                       Rigless            :Section
TOWN            .                    4856781.85            :Township
RANG            .                    2459103.27            :Range
API             .                                          :API NUMBER
UWI             .                                          :UNIQUE WELL ID
LUL             .                          ARCS            :Logging Unit Location
LUN             .                          7062            :Logging Unit Number
LOC             .                          ARCS            :FIELD LOCATION
FL1             .                                          :Field Location Line 1
FL2             .                                          :Field Location Line 2
LATI            .deg                 -48.567818            :LATITUDE
LONG            .deg                  24.591030            :LONGITUDE
PDAT            .                            GL            :Local Permanent Datum
LMF             .                            GL            :Logging Measured From
APD             .m                      0.00000            :Elevation of Depth Reference (LMF) Above Permanent Datum
EPD             .m                    554.51000            :Elevation of Permanent Datum (PDAT) above Mean Sea Level
EKB             .m                      0.00000            :Elevation of Kelly Bushing Above Permanent Datum
EDF             .m                      0.00000            :Elevation of Drill Floor Above Permanent Datum
EGL             .m                      0.00000            :Elevation of Ground Level Above Permanent Datum
ECF             .m                      -999.25            :Elevation of Casing Flange above Permanent Datum
#--------------------------------------------------
~CURVE INFORMATION
#MNEM           .UNIT                  API CODE            :DESCRIPTION
#----            ------          --------------            -----------------------------
DEPT            .m                                         :                                                        Depth Index
CBLF            .mV                                        :        (DSLT-H)                (6in)                   CBL Amplitude (Fluid Compensated)
TT              .us                                        :        (DSLT-H)                (6in)                   Transit Time for CBL
CTEM            .degC                                      :        (HGNS-H)                (6in)                   Cartridge Temperature
CFTC            .1/s                                       :        (HGNS-H)                (2in)                   Corrected Far Thermal Count Rate
CCL             .                                          :        (CAL-YA)                (1in)                   Casing Collar Locator Amplitude
TENS            .lbf                                       :        (WLWorkflow)            (6in)                   Cable Tension
DEPTH           .m                                         :        (WLWorkflow)            (6in)                   Depth Index
SDEV            .deg                                       :        (HGNS-H)                (6in)                   Sonde Deviation
TNPH            .V/V                                       :        (HGNS-H)                (6in)                   Thermal Neutron Porosity (Ratio Method) in Selected Lithology
GR              .gAPI                                      :        (HGNS-H)                (6in)                   Gamma Ray
#-------------------------------------------------------------
#            DEPT         CBLF           TT         CTEM         CFTC          CCL         TENS        DEPTH         SDEV         TNPH           GR 
#                     (DSLT-H)     (DSLT-H)     (HGNS-H)     (HGNS-H)     (CAL-YA)  (WLWorkflo)  (WLWorkflo)     (HGNS-H)     (HGNS-H)     (HGNS-H) 
#                                                                                                                                                   
#                        (6in)        (6in)        (6in)        (2in)        (1in)        (6in)        (6in)        (6in)        (6in)        (6in) 
~ASCII
# ...
        790.19400     15.03498    273.12200     58.05293    388.97190      0.10242   1184.62511    790.19098      -999.25      0.46659     67.38522
        790.34640     17.08985    277.59770     58.05293    421.36550      0.09805   1167.77770    790.34850      -999.25      0.42003     72.52713
        790.49880     14.01849    266.01890     58.05293    443.12930      0.03183   1179.99989    790.50531      -999.25      0.40465     70.36240
        790.65120     13.24666    268.20430     58.05293    436.99540      0.09953   1209.25000    790.65231      -999.25      0.42911     74.95238
        790.80360     14.67709    268.45910     58.05293    430.51840      0.06205   1188.62513    790.79900      -999.25      0.44847     74.41115
        790.95600     15.16866    268.76080     58.05293    440.77630      0.10366   1175.55564    790.95584      -999.25      0.44731     78.19981
        791.10840     17.04957    268.70250     58.05293    434.30070      0.10003   1196.99994    791.11173      -999.25      0.46479     77.66966
        791.26080     19.48803    269.08140     58.05293    454.11460     -0.00677   1192.87492    791.25874      -999.25      0.42870     79.29323
        791.41320     21.33256    268.98790     58.05293    448.41040     -0.07419   1162.77772    791.41586      -999.25      0.44210     74.42221
        791.56560     23.23305    269.39440     58.05293    485.07890     -0.01357   1188.25015    791.57528      -999.25      0.39196     69.00930
        791.71800     24.93221    269.55300     58.05293    471.34430      0.10952   1204.25003    791.72419      -999.25      0.42441     70.63319
        791.87040     24.76574    269.48500     58.05293    480.88290      0.15369   1168.75000    791.87056      -999.25      0.42292     73.61006
        792.02280     22.71464    269.48150     58.05293    474.74470      0.06225   1159.00003    792.01724      -999.25      0.43937     76.04568
        792.17520     20.01315    269.25450     58.05293    490.77700      0.05102   1204.88893    792.17391      -999.25      0.42601     79.83465
        792.32760     17.87181    268.77760     58.05293    513.32430      0.00372   1213.87500    792.32966      -999.25      0.40994     84.43475
        792.48000     16.83271    269.01820     58.05293    532.08590      0.07244   1163.12505    792.47508      -999.25      0.37966     89.57696
        792.63240     15.91015    268.57740     58.05293    502.33200      0.02104   1181.00006    792.63168      -999.25      0.40542     85.24667
        792.78480     14.63773    268.38050     58.05293    474.82960      0.04950   1213.75000    792.78940      -999.25      0.42452     80.64647
        792.93720     14.26975    268.61620     58.05293    424.78000      0.10636   1197.12493    792.93831      -999.25      0.46835     80.37556
        793.08960     15.25647    268.56000     58.05293    429.36870      0.11640   1186.75000    793.08500      -999.25      0.42400     87.14143
        793.24200     16.56904    268.78740     58.05293    394.66730      0.03876   1215.33333    793.24156      -999.25      0.45671     84.43488
        793.39440     17.14619    268.66760     58.05293    395.08470     -0.05231   1215.49992    793.39742      -999.25      0.42696     79.44362
        793.54680     17.17482    268.50810     58.05293    374.49530      0.03580   1189.62508    793.54378      -999.25      0.45287     68.88891
        793.69920     17.52704    268.27900     58.05293    392.01870      0.08144   1209.66680    793.69848      -999.25      0.43596     65.64155
        793.85160     17.74929    268.30120     58.05293    390.07940      0.13595   1219.12496    793.85398      -999.25      0.46258     55.47797
        794.00400     16.90200    268.76430     58.05293    392.34720      0.04884   1189.74985    793.99940      -999.25      0.46195     53.31289
        794.15640     15.75723    268.76420     58.05293    384.72470      0.08159   1195.77765    794.15483      -999.25      0.48419     49.79480
        794.30880     15.68571    268.70050     58.05293    376.38050      0.06638   1221.37507    794.31213      -999.25      0.49271     55.47778
        794.46120     16.49719    268.70270     58.05293    388.96180      0.07526   1206.44439    794.46443      -999.25      0.47035     57.91346
        794.61360     17.65014    268.57890     58.05293    406.50470     -0.00750   1208.87502    794.61820      -999.25      0.44381     65.22038
        794.76600     19.10830    268.91800     58.05293    404.58040      0.06045   1204.50001    794.76521      -999.25      0.44639     75.23380
        794.91840     20.29218    269.14740     58.05293    388.21190      0.09968   1202.11119    794.91824      -999.25      0.45889     80.37564
        795.07080     20.44441    269.24000     58.05293    378.29160      0.08284   1220.87510    795.07286      -999.25      0.47411     80.31551
        795.22320     19.57200    268.89920     58.05293    383.98090      0.04402   1212.62506    795.21891      -999.25      0.45863     72.73763
        795.37560     18.33032    268.60310     58.33254    401.54050     -0.04788   1182.44446    795.37346      -999.25      0.42002     75.17330
        795.52800     17.59727    268.57940     58.33254    403.86480      0.04867   1201.24995    795.53038      -999.25      0.42255     79.56329
        795.68040     17.85493    268.50630     58.33254    390.53690      0.11463   1225.12489    795.67675      -999.25      0.44353     83.08190
        795.83280     18.78289    268.88980     58.33254    388.20470      0.09283   1185.00009    795.83095      -999.25      0.44747     81.72851
        795.98520     19.70686    269.18080     58.33254    359.61100      0.05527   1199.75003    795.98536      -999.25      0.52117     83.89392
        796.13760     19.88822    268.92510     58.33254    383.61140      0.06972   1211.44436    796.13970      -999.25      0.48102     86.05843
        796.29000     20.15560    268.76730     58.33254    378.67250      0.06695   1204.12503    796.29397      -999.25      0.50016     86.60018
        796.44240     22.14712    268.89240     58.33254    411.79860      0.01559   1222.37502    796.43970      -999.25      0.45085     83.35225
        796.59480     24.54622    268.91200     58.33254    424.00350      0.01088   1226.66663    796.59408      -999.25      0.43519     81.72885
        796.74720     25.25384    269.15410     58.33254    441.92280      0.06817   1211.12513    796.74895      -999.25      0.41764     82.54070
        796.89960     25.21947    269.18500     58.33254    466.72530      0.05127   1201.87515    796.89754      -999.25      0.38391     84.97653
        797.05200     25.59348    269.12820     58.33254    433.19650      0.10646   1200.74998    797.04740      -999.25      0.41612     85.78802
        797.20440     25.59556    268.99620     58.33254    408.81270     -0.00643   1203.87505    797.19694      -999.25      0.43503     87.14110
        797.35680     25.20578    269.22650     58.33254    380.22290      0.00908   1196.33338    797.35523      -999.25      0.46873     77.93968
        797.50920     24.98491    268.75610     58.33254    391.26500      0.05174   1212.37507    797.51380      -999.25      0.44650     79.56366
        797.66160     23.69623    268.82800     58.33254    430.53850      0.11008   1225.62509    797.66493      -999.25      0.38716     79.83414
        797.81400     21.20302    268.58860     58.33254    414.11740      0.10405   1217.12506    797.81257      -999.25      0.41074     92.82455
        797.96640     19.51923    268.73340     58.33254    404.57930      0.17966   1212.87505    797.96148      -999.25      0.43596     94.17775
        798.11880     18.20264    268.90000     58.33254    391.97490      0.05031   1226.88896    798.12033      -999.25      0.45989     93.36595
        798.27120     15.75449    268.28080     58.33254    400.74680      0.02367   1215.28567    798.27213      -999.25      0.43367     86.05878
        798.42360     12.97696    267.99260     58.33254    394.29680      0.09228   1209.77785    798.42372      -999.25      0.44507     85.51737
