~VERSION INFORMATION 
VERS  .    2.0                                     :CWLS Log ASCII Standard - VERSION 2.0
WRAP  .    NO                                      :One Line per Depth step
PROD  .    Schlumberger Technology Corp.           :LAS Producer
PROG  .    Horizon LASWriter 8.0.95333.3100        :LAS Program name and version
SOURCE.    CARRERA_02: CBL-VDL-NL-GR-Log[4]/Up     :Run&Pass Information
CREA  .    06/11/2018                              :LAS Creation date {MM/DD/YYYY}
#--------------------------------------------------
~WELL INFORMATION 
#MNEM           .UNIT                      DATA            :DESCRIPTION
#----            ------          --------------            -----------------------------
STRT            .m                    454.91400            :START DEPTH
STOP            .m                   2158.89840            :STOP DEPTH
STEP            .m                       0.1524            :STEP
NULL            .                       -999.25            :NULL VALUE
COMP            .                       YPF S.A            :COMPANY
WELL            .                YPF.SC.ECH-212            :WELL NAME
FLD             .                ESTANCIA CHOLITA          :FIELD NAME
RIGN            .                                          :Rig Name
RIGTYP          .                                          :Rig Type
SON             .                 TICKET NUMBER            :Service Order Number
SRVC            .                  Schlumberger            :SERVICE COMPANY
DATE            .                    06/08/2018            :LOG DATE(Composite Date for Composite LAP) (MM/DD/YYYY)
CLAB            .                       County:            :County Label
CNTY            .                    SANTA CRUZ            :COUNTY
SLAB            .                          UWI:            :State/Province Label
STAT            .                AR030000968000            :STATE or PROVINCE
PROV            .                AR030000968000            :STATE or PROVINCE
CTRY            .                     ARGENTINA            :COUNTRY
CONT_REGION     .                                          :Continent Region
SECT            .                       Rigless            :Section
TOWN            .                    4856781.85            :Township
RANG            .                    2459103.27            :Range
API             .                                          :API NUMBER
UWI             .                                          :UNIQUE WELL ID
LUL             .                          ARCS            :Logging Unit Location
LUN             .                          7062            :Logging Unit Number
LOC             .                          ARCS            :FIELD LOCATION
FL1             .                                          :Field Location Line 1
FL2             .                                          :Field Location Line 2
LATI            .deg                 -48.567818            :LATITUDE
LONG            .deg                  24.591030            :LONGITUDE
PDAT            .                            GL            :Local Permanent Datum
LMF             .                            GL            :Logging Measured From
APD             .m                      0.00000            :Elevation of Depth Reference (LMF) Above Permanent Datum
EPD             .m                    554.51000            :Elevation of Permanent Datum (PDAT) above Mean Sea Level
EKB             .m                      0.00000            :Elevation of Kelly Bushing Above Permanent Datum
EDF             .m                      0.00000            :Elevation of Drill Floor Above Permanent Datum
EGL             .m                      0.00000            :Elevation of Ground Level Above Permanent Datum
ECF             .m                      -999.25            :Elevation of Casing Flange above Permanent Datum
#--------------------------------------------------
~CURVE INFORMATION
#MNEM           .UNIT                  API CODE            :DESCRIPTION
#----            ------          --------------            -----------------------------
DEPT            .m                                         :                                                        Depth Index
CBLF            .mV                                        :        (DSLT-H)                (6in)                   CBL Amplitude (Fluid Compensated)
TT              .us                                        :        (DSLT-H)                (6in)                   Transit Time for CBL
CTEM            .degC                                      :        (HGNS-H)                (6in)                   Cartridge Temperature
CFTC            .1/s                                       :        (HGNS-H)                (2in)                   Corrected Far Thermal Count Rate
CCL             .                                          :        (CAL-YA)                (1in)                   Casing Collar Locator Amplitude
TENS            .lbf                                       :        (WLWorkflow)            (6in)                   Cable Tension
DEPTH           .m                                         :        (WLWorkflow)            (6in)                   Depth Index
SDEV            .deg                                       :        (HGNS-H)                (6in)                   Sonde Deviation
TNPH            .V/V                                       :        (HGNS-H)                (6in)                   Thermal Neutron Porosity (Ratio Method) in Selected Lithology
GR              .gAPI                                      :        (HGNS-H)                (6in)                   Gamma Ray
#-------------------------------------------------------------
#            DEPT         CBLF           TT         CTEM         CFTC          CCL         TENS        DEPTH         SDEV         TNPH           GR 
#                     (DSLT-H)     (DSLT-H)     (HGNS-H)     (HGNS-H)     (CAL-YA)  (WLWorkflo)  (WLWorkflo)     (HGNS-H)     (HGNS-H)     (HGNS-H) 
#                                                                                                                                                   
#                        (6in)        (6in)        (6in)        (2in)        (1in)        (6in)        (6in)        (6in)        (6in)        (6in) 
~ASCII
# ...
       2039.11200      3.12101    275.41020    108.38380   1132.87100      0.07310   2466.99939   2039.11466      -999.25      0.20495    112.39040
       2039.26440      3.12630    274.39310    108.38380   1129.06300     -0.01474   2452.66557   2039.26565      -999.25      0.20872    110.28300
       2039.41680      2.92667    276.40840    108.38380   1236.18500      0.09095   2468.55507   2039.41579      -999.25      0.18306     91.31721
       2039.56920      2.92155    274.47040    108.38380   1346.86500      0.06690   2478.77713   2039.56848      -999.25      0.16332     81.01448
       2039.72160      3.10660    274.15860    108.38380   1364.68900      0.05942   2494.55647   2039.72031      -999.25      0.15678     67.66848
       2039.87400      3.09301    274.05510    108.38380   1231.30800      0.04232   2494.22150   2039.87130      -999.25      0.17838     69.07298
       2040.02640      3.06204    275.66230    108.38380   1078.95100      0.07535   2475.55562   2040.02314      -999.25      0.20891     73.75604
       2040.17880      3.41545    273.96840    108.38380    968.36410      0.12707   2464.11059   2040.17328      -999.25      0.23915     78.43923
       2040.33120      3.88974    278.53950    108.38380    996.96280      0.06411   2460.90032   2040.33307      -999.25      0.22310     78.67339
       2040.48360      3.77648    280.48640    108.38380   1041.68500      0.06555   2466.62396   2040.48439      -999.25      0.21141     71.88291
       2040.63600      3.25182    279.78330    108.38380   1098.80300      0.06099   2495.33431   2040.62850      -999.25      0.19857     70.71192
       2040.78840      3.24454    279.02100    108.38380   1091.80800     -0.22929   2485.30108   2040.78951      -999.25      0.19911     64.85856
       2040.94080      3.33416    277.43880    108.38380   1084.11800      6.65568   2475.66577   2040.94911      -999.25      0.19777     61.34621
       2041.09320      3.36942    280.15760    108.38380   1069.49200      0.04118   2474.66762   2041.10122      -999.25      0.19885     52.21452
       2041.24560      4.72346    276.53130    108.38380   1068.00300      0.05888   2477.00114   2041.25221      -999.25      0.20001     51.04370
       2041.39800      5.37659    282.15060    108.38380   1071.04200      0.04003   2491.88799   2041.40348      -999.25      0.19909     53.85399
       2041.55040      3.86134    273.32740    108.38380   1092.67200      0.08287   2487.11080   2041.55334      -999.25      0.19849     60.08218
       2041.70280      3.18167    272.76060    108.38380   1111.95800      0.12260   2481.77833   2041.70659      -999.25      0.20115     60.55029
       2041.85520      3.62300    272.31140    108.38380   1153.68900      0.06145   2455.55661   2041.85702      -999.25      0.19629     61.95511
       2042.00760      3.75169    271.66840    108.66340   1241.33800     -0.04020   2463.66772   2042.00659      -999.25      0.17947     64.85851
       2042.16000      3.55496    272.57920    108.66340   1323.45400     -0.01483   2465.88883   2042.16097      -999.25      0.16784     68.60509
       2042.31240      3.27648    273.17940    108.66340   1346.74500      0.05713   2467.66707   2042.31196      -999.25      0.16621     75.16072
       2042.46480      3.15014    274.28330    108.66340   1268.37600      0.04268   2448.11094   2042.46012      -999.25      0.18541     80.07825
       2042.61720      3.13826    272.90510    108.66340   1211.76900      0.00762   2457.88788   2042.61281      -999.25      0.20093     82.18555
       2042.76960      3.10815    274.60430    108.66340   1225.68000      0.08607   2482.55617   2042.76351      -999.25      0.19189     78.67337
       2042.92200      3.00864    275.05740    108.66340   1254.36300     -0.01570   2491.55527   2042.91958      -999.25      0.17963     85.69748
       2043.07440      3.05658    273.12520    108.66340   1238.87100      0.08505   2509.66588   2043.06944      -999.25      0.18041    100.56580
       2043.22680      3.11761    274.03920    108.66340   1180.03400      0.01650   2503.09921   2043.22715      -999.25      0.19116    102.90740
       2043.37920      3.00342    274.61690    108.66340   1129.65700      0.03484   2466.77683   2043.38666      -999.25      0.20374     91.20014
       2043.53160      2.78049    275.05220    108.66340   1153.66900      0.09150   2464.22300   2043.53821      -999.25      0.20102     75.39510
       2043.68400      2.68517    276.66950    108.66340   1192.36000      0.03567   2461.33420   2043.68892      -999.25      0.19340     78.67293
       2043.83640      2.82024    274.76680    108.66340   1224.15700      0.05200   2473.88978   2043.84104      -999.25      0.18377     91.78492
       2043.98880      2.84206    275.50260    108.66340   1183.92600      0.12773   2452.88813   2043.99400      -999.25      0.19296    102.55580
       2044.14120      2.85389    276.22660    108.66340   1135.18400      0.11814   2451.77757   2044.14499      -999.25      0.20157    101.61960
       2044.29360      3.00491    275.10100    108.66340   1126.61100      0.03204   2463.22260   2044.29711      -999.25      0.20240     94.59508
       2044.44600      2.98921    275.31120    108.66340   1221.18300      0.11049   2478.55682   2044.44894      -999.25      0.18315     83.40296
       2044.59840      2.90811    275.85330    108.66340   1395.93100      0.07818   2470.11074   2044.60022      -999.25      0.15777     76.84637
       2044.75080      3.03426    275.13890    108.66340   1632.32200     -0.00719   2473.22210   2044.75149      -999.25      0.12818     74.50551
       2044.90320      3.22766    273.51200    108.66340   1757.69800      0.05752   2473.33226   2044.90332      -999.25      0.11620     77.73654
       2045.05560      3.28085    274.13870    108.66340   1696.11800      0.06154   2500.66677   2045.05572      -999.25      0.12382     81.71728
       2045.20800      3.22449    273.54980    108.66340   1468.23800      0.09215   2502.11230   2045.20756      -999.25      0.14998     82.41951
       2045.36040      3.24466    274.03650    108.66340   1232.92900     -0.01654   2497.55542   2045.35855      -999.25      0.18694     83.59046
       2045.51280      3.45041    273.12750    108.66340   1071.95900      0.10855   2498.11070   2045.50954      -999.25      0.22287     80.31246
       2045.66520      3.60126    272.88800    108.66340   1059.59500      0.13462   2493.00079   2045.66109      -999.25      0.21786     74.69281
       2045.81760      3.56907    273.00920    108.66340   1081.93300      0.07344   2475.33305   2045.81236      -999.25      0.20544     71.41442
       2045.97000      3.51836    272.53200    108.66340   1156.79700      0.05348   2500.11150   2045.96335      -999.25      0.19874     69.54118
       2046.12240      3.40974    272.43260    108.66340   1215.80400      0.05313   2485.66752   2046.11660      -999.25      0.19782     75.79297
       2046.27480      3.24252    273.37620    108.66340   1369.65000      0.05947   2492.11055   2046.26815      -999.25      0.16981     68.30042
       2046.42720      3.16019    273.27740    108.66340   1524.24100      0.11108   2499.00094   2046.42780      -999.25      0.14576     68.53496
       2046.57960      3.08867    274.29260    108.66340   1544.72600      0.10574   2478.88953   2046.58734      -999.25      0.14429     64.39040
       2046.73200      3.04330    274.13210    108.66340   1397.87100      0.08001   2465.77867   2046.73833      -999.25      0.16346     73.28807
       2046.88440      3.11197    274.37830    108.66340   1179.17600      0.06489   2466.55651   2046.88932      -999.25      0.19553     77.26830
       2047.03680      3.13304    275.08940    108.66340   1023.21100      0.04604   2493.77863   2047.03946      -999.25      0.22465     81.71694
       2047.18920      3.11925    275.29220    108.66340    963.75890      0.10777   2505.55637   2047.19102      -999.25      0.23347     82.88776
       2047.34160      3.19457    274.47530    108.66340    936.83780      0.07158   2486.11040   2047.34285      -999.25      0.23940     80.49941
