~VERSION INFORMATION 
VERS  .    2.0                                     :CWLS Log ASCII Standard - VERSION 2.0
WRAP  .    NO                                      :One Line per Depth step
PROD  .    Schlumberger Technology Corp.           :LAS Producer
PROG  .    Horizon LASWriter 6.2.64464.3100        :LAS Program name and version
SOURCE.    1-Log[5]/Up                             :Run&Pass Information
CREA  .    01/05/2017                              :LAS Creation date {MM/DD/YYYY}
#--------------------------------------------------
~WELL INFORMATION 
#MNEM           .UNIT                      DATA            :DESCRIPTION
#----            ------          --------------            -----------------------------
STRT            .m                     16.91640            :START DEPTH
STOP            .m                   1777.89840            :STOP DEPTH
STEP            .m                       0.1524            :STEP
NULL            .                       -999.25            :NULL VALUE
COMP            .                      YPF S.A.            :COMPANY
WELL            .                 YPF.SC.LC-941            :WELL NAME
FLD             .                 LOMAS DEL CUY            :FIELD NAME
RIGN            .                                          :Rig Name
RIGTYP          .                                          :Rig Type
SON             .                                          :Service Order Number
SRVC            .                  Schlumberger            :SERVICE COMPANY
DATE            .                    01/05/2017            :LOG DATE(Composite Date for Composite LAP) (MM/DD/YYYY)
CLAB            .                    Provincia:            :County Label
CNTY            .                    SANTA CRUZ            :COUNTY
SLAB            .                          UWI:            :State/Province Label
STAT            .                 No disponible            :STATE or PROVINCE
PROV            .                 No disponible            :STATE or PROVINCE
CTRY            .                     ARGENTINA            :COUNTRY
CONT_REGION     .                                          :Continent Region
SECT            .                       RIGLESS            :Section
TOWN            .                NT Ground Level G.L       :Township
RANG            .                M.R Drilling Floor D.F    :Range
API             .                                          :API NUMBER
UWI             .                                          :UNIQUE WELL ID
LUL             .                  CANADON SECO            :Logging Unit Location
LUN             .                          7008            :Logging Unit Number
LOC             .                          ARCS            :FIELD LOCATION
FL1             .                X: 4.856.702,40           :Field Location Line 1
FL2             .                Y: 2.494.852,45           :Field Location Line 2
LATI            .deg                 0° 0' 0" N            :LATITUDE
LONG            .deg                 0° 0' 0" E            :LONGITUDE
PDAT            .                            GL            :Local Permanent Datum
LMF             .                            GL            :Logging Measured From
APD             .m                      0.00000            :Elevation of Depth Reference (LMF) Above Permanent Datum
EPD             .m                    573.57000            :Elevation of Permanent Datum (PDAT) above Mean Sea Level
EKB             .m                      5.30000            :Elevation of Kelly Bushing Above Permanent Datum
EDF             .m                      5.30000            :Elevation of Drill Floor Above Permanent Datum
EGL             .m                      0.00000            :Elevation of Ground Level Above Permanent Datum
ECF             .m                      -999.25            :Elevation of Casing Flange above Permanent Datum
#--------------------------------------------------
~CURVE INFORMATION
#MNEM           .UNIT                  API CODE            :DESCRIPTION
#----            ------          --------------            -----------------------------
DEPT            .m                                         :                                                        Depth Index
CFTC            .1/s                                       :        (HGNS-H)                (6in)                   Corrected Far Thermal Count Rate
GR              .gAPI                                      :        (HGNS-H)                (6in)                   Gamma Ray
TNPH            .m3/m3                                     :        (HGNS-H)                (6in)                   Thermal Neutron Porosity (Ratio Method) in Selected Lithology
CBL             .mV                                        :        (ASLT-A)                (6in)                   CBL Amplitude
CBLF            .mV                                        :        (ASLT-A)                (6in)                   CBL Amplitude (Fluid Compensated)
TT              .us                                        :        (ASLT-A)                (6in)                   Transit Time for CBL
CCL             .                                          :        (CAL-YA)                (1in)                   Casing Collar Locator Amplitude
#-------------------------------------------------------------
#            DEPT         CFTC           GR         TNPH          CBL         CBLF           TT          CCL 
#                     (HGNS-H)     (HGNS-H)     (HGNS-H)     (ASLT-A)     (ASLT-A)     (ASLT-A)     (CAL-YA) 
#                                                                                                            
#                        (6in)        (6in)        (6in)        (6in)        (6in)        (6in)        (1in) 
~ASCII
         16.91640    227.23660     18.89972      0.95347     76.62589     61.30071    280.89070     -0.00917
         17.06880    238.51020     19.18181      0.81237     73.95360     59.16288    280.84330      0.04170
         17.22120    238.97850     20.35038      0.75004     71.10587     56.88470    280.89330     -0.00086
         17.37360    242.17530     21.19670      0.67707     67.87206     54.29765    280.94270      0.02772
         17.52600    208.13100     21.19669      1.11795     65.99067     52.79253    280.97740      0.01699
         17.67840    199.28250     23.41306      1.31481     65.56441     52.45153    281.07460     -0.01414
         17.83080    186.73990     24.54146      1.64703     65.56305     52.45044    281.04770      0.04524
         17.98320    208.61400     20.47135      1.06268     64.68241     51.74593    281.13150      0.02673
         18.13560    228.04120     19.90722      0.74917     62.88207     50.30566    281.16660      0.02343
         18.28800    222.87410     20.75340      0.85717     61.86531     49.49225    281.12620      0.01665
         18.44040    222.15430     22.84899      0.87540     62.22533     49.78026    281.09160      0.08132
         18.59280    211.57040     24.54142      1.07197     62.37215     49.89772    281.10090      0.08139
         18.74520    225.94520     28.32940      0.88740     62.10229     49.68183    281.01860      0.05132
         18.89760    220.30900     31.99662      0.95464     62.54041     50.03233    281.19060      0.06499
         19.05000    236.40890     31.71465      0.73855     63.33984     50.67188    281.02130      0.01827
         19.20240    239.73550     28.20891      0.71099     64.84456     51.87565    281.05650      0.00609
         19.35480    243.75970     28.57141      0.68135     66.61073     53.28858    281.08330      0.01862
         19.50720    233.64560     29.41751      0.74629     67.87493     54.29995    281.03750      0.04680
         19.65960    233.64440     30.82789      0.74073     69.08553     55.26843    281.02970      0.02338
         19.81200    229.62490     30.46527      0.71639     69.54527     55.63622    280.99150      0.02420
         19.96440    233.29050     26.23391      0.67110     69.24887     55.39909    281.00120     -0.00302
         20.11680    229.95020     26.23385      0.66565     69.15810     55.32648    281.00010      0.00188
         20.26920    236.40280     25.38752      0.55455     68.90439     55.12352    281.15870     -0.02364
         20.42160    227.55750     31.31135      0.62067     67.99949     54.39959    281.24640      0.03447
         20.57400    213.19220     32.43978      0.79918     66.96021     53.56816    281.33930     -0.01243
         20.72640    193.07380     34.61592      1.19717     66.11134     52.88907    281.19630      0.03609
         20.87880    175.25950     31.79524      1.79636     65.88806     52.71045    281.16170      0.06242
         21.03120    180.88960     30.38479      1.56861     65.69496     52.55597    281.08420     -0.01761
         21.18360    188.12110     27.64454      1.33385     65.11855     52.09484    281.07730     -0.03218
         21.33600    204.33560     26.23419      0.91984     64.95634     51.96507    281.23530      0.04953
         21.48840    189.17880     27.64441      1.25335     64.86523     51.89219    281.20470     -0.01131
         21.64080    190.78800     29.73993      1.15168     64.51215     51.60972    281.37000      0.04482
         21.79320    181.95640     30.30396      1.48306     63.65707     50.92565    281.26340     -0.00582
         21.94560    206.77490     26.63690      0.81690     62.93529     50.34823    281.25430      0.05564
         22.09800    202.73980     23.41306      0.88950     62.36615     49.89292    281.20780     -0.03201
         22.25040    200.87480     25.66995      0.93498     60.65002     48.52002    281.08180      0.03166
         22.40280    195.23700     27.36262      1.14574     58.96045     47.16836    281.11510     -0.00985
         22.55520    192.03420     27.64455      1.17838     57.87967     46.30373    281.18000      0.04097
         22.70760    196.28830     23.97725      1.09353     55.40038     44.32031    281.09710      0.03943
         22.86000    185.83910     21.11593      1.52584     52.90561     42.32449    281.01860     -0.00934
         23.01240    188.23670     23.09068      1.33920     52.94216     42.35373    281.17030      0.03164
         23.16480    173.87530     21.68034      1.88165     53.54996     42.83997    281.21050      0.00653
         23.31720    177.08660     24.54155      1.85804     53.57889     42.86311    281.17040      0.03349
         23.46960    165.03760     20.87445      2.47324     55.37001     44.29601    281.15840     -0.01126
         23.62200    185.02450     23.69546      1.47798     58.73470     46.98776    281.40790      0.04669
         23.77440    195.15160     22.00285      1.28018     60.89207     48.71365    281.42280      0.01977
         23.92680    209.62440     23.41326      0.99875     61.12833     48.90267    281.44280      0.03362
         24.07920    207.23060     24.54131      1.06438     61.06957     48.85566    281.37180     -0.00505
         24.23160    202.73540     27.64441      1.25552     61.90353     49.52283    281.57210      0.01977
         24.38400    208.36360     30.46510      1.16766     62.58281     50.06625    281.55010      0.01537
         24.53640    218.34340     28.36982      0.97201     62.08374     49.66699    281.50990      0.02770
         24.68880    219.16830     30.06219      0.94597     60.99691     48.79753    281.48200      0.01203
         24.84120    240.13100     31.47280      0.71125     60.45516     48.36413    281.43150     -0.00377
         24.99360    241.40570     36.38903      0.70683     60.17926     48.14341    281.34990      0.02142
         25.14600    253.34720     35.58310      0.59145     59.98062     47.98449    281.35950      0.02601
         25.29840    235.60320     33.32635      0.72287     60.50237     48.40190    281.32530     -0.01091
         25.45080    224.33470     28.53100      0.84246     60.29790     48.23832    281.33690      0.03624
         25.60320    213.98160     24.82364      0.97221     58.22296     46.57837    281.38270      0.02691
         25.75560    216.40750     27.08025      0.89173     56.61391     45.29113    281.42060      0.02005
         25.90800    209.96820     28.57117      0.93424     56.77711     45.42169    281.26020      0.03301
         26.06040    209.27200     30.82781      0.92414     56.59441     45.27553    281.32790      0.02911
         26.21280    206.84380     31.95630      1.00399     55.43565     44.34853    281.24510      0.01243
         26.36520    214.09080     36.10707      0.75610     54.53243     43.62595    281.33040      0.01697
         26.51760    194.68780     38.08166      1.10540     53.87233     43.09786    281.26380      0.02061
         26.67000    195.04470     33.68905      1.19889     52.79189     42.23351    281.26130      0.00881
         26.82240    187.00020     28.89372      1.39964     51.35348     41.08278    281.43840     -0.00779
         26.97480    219.17030     26.07284      0.69112     50.39828     40.31863    281.29770      0.03632
         27.12720    225.27450     31.02925      0.67390     50.15628     40.12502    281.35740      0.02827
         27.27960    226.88490     34.69638      0.61929     49.69101     39.75280    281.52460      0.00174
         27.43200    221.48880     36.99342      0.65519     48.74949     38.99959    281.33730      0.02712
         27.58440    228.71540     38.96822      0.61885     47.70987     38.16790    281.38340      0.02740
         27.73680    235.14450     38.12167      0.58408     47.43897     37.95118    281.44060      0.02354
         27.88920    239.73730     40.33820      0.58146     48.76973     39.01578    281.53880      0.01980
         28.04160    213.98980     34.69658      0.99588     45.60429     36.48343    281.44030     -0.00626
