~VERSION INFORMATION 
VERS  .    2.0                                     :CWLS Log ASCII Standard - VERSION 2.0
WRAP  .    NO                                      :One Line per Depth step
PROD  .    Schlumberger Technology Corp.           :LAS Producer
PROG  .    Horizon LASWriter 8.0.95333.3100        :LAS Program name and version
SOURCE.    CARRERA_02: CBL-VDL-NL-GR-Log[4]/Up     :Run&Pass Information
CREA  .    06/11/2018                              :LAS Creation date {MM/DD/YYYY}
#--------------------------------------------------
~WELL INFORMATION 
#MNEM           .UNIT                      DATA            :DESCRIPTION
#----            ------          --------------            -----------------------------
STRT            .m                    454.91400            :START DEPTH
STOP            .m                   2158.89840            :STOP DEPTH
STEP            .m                       0.1524            :STEP
NULL            .                       -999.25            :NULL VALUE
COMP            .                       YPF S.A            :COMPANY
WELL            .                YPF.SC.ECH-212            :WELL NAME
FLD             .                ESTANCIA CHOLITA          :FIELD NAME
RIGN            .                                          :Rig Name
RIGTYP          .                                          :Rig Type
SON             .                 TICKET NUMBER            :Service Order Number
SRVC            .                  Schlumberger            :SERVICE COMPANY
DATE            .                    06/08/2018            :LOG DATE(Composite Date for Composite LAP) (MM/DD/YYYY)
CLAB            .                       County:            :County Label
CNTY            .                    SANTA CRUZ            :COUNTY
SLAB            .                          UWI:            :State/Province Label
STAT            .                AR030000968000            :STATE or PROVINCE
PROV            .                AR030000968000            :STATE or PROVINCE
CTRY            .                     ARGENTINA            :COUNTRY
CONT_REGION     .                                          :Continent Region
SECT            .                       Rigless            :Section
TOWN            .                    4856781.85            :Township
RANG            .                    2459103.27            :Range
API             .                                          :API NUMBER
UWI             .                                          :UNIQUE WELL ID
LUL             .                          ARCS            :Logging Unit Location
LUN             .                          7062            :Logging Unit Number
LOC             .                          ARCS            :FIELD LOCATION
FL1             .                                          :Field Location Line 1
FL2             .                                          :Field Location Line 2
LATI            .deg                 -48.567818            :LATITUDE
LONG            .deg                  24.591030            :LONGITUDE
PDAT            .                            GL            :Local Permanent Datum
LMF             .                            GL            :Logging Measured From
APD             .m                      0.00000            :Elevation of Depth Reference (LMF) Above Permanent Datum
EPD             .m                    554.51000            :Elevation of Permanent Datum (PDAT) above Mean Sea Level
EKB             .m                      0.00000            :Elevation of Kelly Bushing Above Permanent Datum
EDF             .m                      0.00000            :Elevation of Drill Floor Above Permanent Datum
EGL             .m                      0.00000            :Elevation of Ground Level Above Permanent Datum
ECF             .m                      -999.25            :Elevation of Casing Flange above Permanent Datum
#--------------------------------------------------
~CURVE INFORMATION
#MNEM           .UNIT                  API CODE            :DESCRIPTION
#----            ------          --------------            -----------------------------
DEPT            .m                                         :                                                        Depth Index
CBLF            .mV                                        :        (DSLT-H)                (6in)                   CBL Amplitude (Fluid Compensated)
TT              .us                                        :        (DSLT-H)                (6in)                   Transit Time for CBL
CTEM            .degC                                      :        (HGNS-H)                (6in)                   Cartridge Temperature
CFTC            .1/s                                       :        (HGNS-H)                (2in)                   Corrected Far Thermal Count Rate
CCL             .                                          :        (CAL-YA)                (1in)                   Casing Collar Locator Amplitude
TENS            .lbf                                       :        (WLWorkflow)            (6in)                   Cable Tension
DEPTH           .m                                         :        (WLWorkflow)            (6in)                   Depth Index
SDEV            .deg                                       :        (HGNS-H)                (6in)                   Sonde Deviation
TNPH            .V/V                                       :        (HGNS-H)                (6in)                   Thermal Neutron Porosity (Ratio Method) in Selected Lithology
GR              .gAPI                                      :        (HGNS-H)                (6in)                   Gamma Ray
#-------------------------------------------------------------
#            DEPT         CBLF           TT         CTEM         CFTC          CCL         TENS        DEPTH         SDEV         TNPH           GR 
#                     (DSLT-H)     (DSLT-H)     (HGNS-H)     (HGNS-H)     (CAL-YA)  (WLWorkflo)  (WLWorkflo)     (HGNS-H)     (HGNS-H)     (HGNS-H) 
#                                                                                                                                                   
#                        (6in)        (6in)        (6in)        (2in)        (1in)        (6in)        (6in)        (6in)        (6in)        (6in) 
~ASCII
# ...
       1921.76400      5.81812    269.21140    105.02840   1287.60300      0.10344   2383.37496   1921.77019      -999.25      0.19860    110.31230
       1921.91640      5.46172    268.52130    105.02840   1278.71400     -0.01252   2380.88857   1921.92160      -999.25      0.19845    109.84380
       1922.06880      5.20746    270.73880    105.02840   1303.58300      0.09067   2382.37456   1922.07753      -999.25      0.19236    120.38030
       1922.22120      5.33696    269.23920    105.02840   1333.40500      0.06115   2406.37516   1922.21914      -999.25      0.18386    128.34170
       1922.37360      5.16079    270.41200    105.02840   1334.96200     -0.01380   2402.33309   1922.37005      -999.25      0.18286    145.90240
       1922.52600      4.52693    272.85370    105.02840   1293.44200      0.06102   2391.25001   1922.52362      -999.25      0.19283    155.12250
       1922.67840      4.20624    271.39460    105.02840   1251.60100      0.05725   2379.22274   1922.67457      -999.25      0.19852    164.01990
       1922.83080      4.45924    271.89010    105.02840   1210.58200      0.10999   2384.12582   1922.82461      -999.25      0.20811    167.76640
       1922.98320      5.00548    270.07450    105.02840   1193.11400      0.03554   2404.77677   1922.97994      -999.25      0.21782    163.02450
       1923.13560      5.18776    269.96990    105.02840   1231.01900      0.07177   2401.22254   1923.13713      -999.25      0.22114    162.32230
       1923.28800      4.78918    270.43180    105.02840   1329.64800     -0.04336   2387.62609   1923.28911      -999.25      0.20087    145.23040
       1923.44040      4.27807    270.92650    105.02840   1416.59000      0.09144   2382.33409   1923.43939      -999.25      0.17754    124.68380
       1923.59280      4.05343    272.13390    105.02840   1432.19000     -0.04994   2376.37441   1923.58947      -999.25      0.17272    104.07810
       1923.74520      4.19490    271.99070    105.02840   1303.33800      0.16668   2386.11088   1923.74222      -999.25      0.19863     94.47766
       1923.89760      4.56678    271.81500    105.02840   1140.72000     -0.00398   2395.66751   1923.90308      -999.25      0.22859     96.23438
       1924.05000      5.04146    269.71750    105.02840   1087.21100      0.13805   2394.12532   1924.05556      -999.25      0.23263     94.06881
       1924.20240      5.54835    270.64240    105.02840   1077.25000      0.10179   2401.49905   1924.19843      -999.25      0.24228     97.34660
       1924.35480      6.16623    269.87420    105.02840   1106.56400     -0.02930   2381.11113   1924.35408      -999.25      0.23768     88.68244
       1924.50720      6.77622    270.22470    105.02840   1119.72700      0.06848   2399.87593   1924.50482      -999.25      0.23544     87.33596
       1924.65960      7.16438    270.53880    105.02840   1154.44600      0.05932   2402.22294   1924.65182      -999.25      0.22735     82.36094
       1924.81200      7.40384    270.36150    105.02840   1170.65200      0.06286   2410.33405   1924.81184      -999.25      0.22770     86.34158
       1924.96440      7.45615    269.99630    105.02840   1145.22500      0.07813   2390.37551   1924.96456      -999.25      0.23103     88.91702
       1925.11680      6.97789    269.45630    105.02840   1119.02100      0.08833   2382.55665   1925.11495      -999.25      0.23436     90.76109
       1925.26920      6.28359    270.94610    105.02840   1093.92700      0.09978   2386.11088   1925.27356      -999.25      0.23996     88.41979
       1925.42160      5.99544    270.02550    105.02840   1110.87700     -0.01884   2385.74894   1925.42462      -999.25      0.22999     85.84467
       1925.57400      5.98466    270.92500    105.02840   1121.72700      0.05681   2385.33304   1925.57469      -999.25      0.22731     86.10761
       1925.72640      6.04172    269.90470    105.02840   1170.08100      0.04091   2377.99977   1925.72934      -999.25      0.20887     90.55627
       1925.87880      6.15840    269.98200    105.02840   1213.86900      0.04448   2387.74974   1925.88055      -999.25      0.19931     93.21957
       1926.03120      6.36781    270.91150    105.02840   1240.93200      0.19160   2383.33224   1926.02906      -999.25      0.19558     97.96105
       1926.18360      6.64684    270.24850    105.02840   1262.60800      0.08321   2383.66721   1926.18965      -999.25      0.19626    104.57600
       1926.33600      6.95203    270.70180    105.02840   1222.32000      0.10188   2384.50125   1926.34029      -999.25      0.21055     97.69788
       1926.48840      7.40484    270.23550    105.02840   1223.73300      0.14134   2370.33379   1926.48965      -999.25      0.21614     89.26886
       1926.64080      7.92801    270.86470    105.02840   1204.33800      0.06808   2364.74954   1926.63937      -999.25      0.22680     77.50256
       1926.79320      8.38667    270.61980    105.02840   1229.79200      0.05757   2375.99898   1926.78965      -999.25      0.21814     70.24399
       1926.94560      8.75677    270.57740    105.02840   1284.89700      0.04146   2380.88857   1926.94798      -999.25      0.20640     61.34625
       1927.09800      8.92563    270.50440    105.02840   1323.61900     -0.03524   2393.62624   1927.09752      -999.25      0.19715     60.73167
       1927.25040      9.08638    270.52770    105.02840   1309.36700      0.14297   2380.22314   1927.24826      -999.25      0.19535     64.00980
       1927.40280      9.29694    270.34780    105.02840   1258.17700      0.05423   2355.66725   1927.40716      -999.25      0.20663     70.80022
       1927.55520      8.91083    270.32490    105.02840   1258.58500     -0.02060   2364.87543   1927.55885      -999.25      0.20686     69.21982
       1927.70760      7.73439    270.30700    105.02840   1305.93500      0.08489   2373.77786   1927.70998      -999.25      0.19640     68.28320
       1927.86000      6.38646    270.56230    105.02840   1343.96700      0.07097   2386.00073   1927.86111      -999.25      0.19125     67.11214
       1928.01240      5.42262    271.01760    105.02840   1388.63600      0.11593   2378.33249   1928.01337      -999.25      0.18420     71.59023
       1928.16480      4.98174    271.47630    105.02840   1378.47400      0.06674   2367.75074   1928.16591      -999.25      0.18566     75.80466
       1928.31720      4.80029    271.02990    105.02840   1364.94200      0.05437   2360.99972   1928.31676      -999.25      0.18335     77.67812
       1928.46960      4.70818    271.67720    105.02840   1247.88500      0.09748   2370.87558   1928.47071      -999.25      0.20652     75.39506
       1928.62200      4.92815    271.19710    105.02840   1175.07200      0.13983   2391.22304   1928.62692      -999.25      0.21716     78.23438
       1928.77440      5.62117    269.92750    105.02840   1127.75900      0.06934   2407.87464   1928.77678      -999.25      0.23416     76.59542
       1928.92680      6.61599    270.22280    105.02840   1137.06100      0.08324   2378.11218   1928.92720      -999.25      0.23018     83.62013
       1929.07920      7.74136    270.43980    105.02840   1160.24600      0.12700   2356.22253   1929.08722      -999.25      0.22722     84.41037
       1929.23160      8.97393    270.18420    105.02840   1191.24400      0.11695   2346.00047   1929.23779      -999.25      0.21097     86.28321
       1929.38400     11.73534    270.51410    105.02840   1194.36500      0.08929   2372.44475   1929.38666      -999.25      0.21658     82.06841
       1929.53640     13.12615    276.39840    105.02840   1201.35300      0.04346   2391.37591   1929.53942      -999.25      0.22228     84.05817
       1929.68880     10.25461    275.37560    105.02840   1226.48500      0.04077   2390.88807   1929.69118      -999.25      0.21958     81.95118
       1929.84120      8.30675    274.06590    105.02840   1304.76600      0.03676   2374.87493   1929.83977      -999.25      0.19102     76.09762
       1929.99360      8.26230    274.69060    105.02840   1303.97500     -8.51770   2361.55500   1929.99231      -999.25      0.19627     71.47344
