~VERSION INFORMATION 
VERS  .    2.0                                     :CWLS Log ASCII Standard - VERSION 2.0
WRAP  .    NO                                      :One Line per Depth step
PROD  .    Schlumberger Technology Corp.           :LAS Producer
PROG  .    Horizon LASWriter 6.2.64464.3100        :LAS Program name and version
SOURCE.    1-Log[5]/Up                             :Run&Pass Information
CREA  .    01/05/2017                              :LAS Creation date {MM/DD/YYYY}
#--------------------------------------------------
~WELL INFORMATION 
#MNEM           .UNIT                      DATA            :DESCRIPTION
#----            ------          --------------            -----------------------------
STRT            .m                     16.91640            :START DEPTH
STOP            .m                   1777.89840            :STOP DEPTH
STEP            .m                       0.1524            :STEP
NULL            .                       -999.25            :NULL VALUE
COMP            .                      YPF S.A.            :COMPANY
WELL            .                 YPF.SC.LC-941            :WELL NAME
FLD             .                 LOMAS DEL CUY            :FIELD NAME
RIGN            .                                          :Rig Name
RIGTYP          .                                          :Rig Type
SON             .                                          :Service Order Number
SRVC            .                  Schlumberger            :SERVICE COMPANY
DATE            .                    01/05/2017            :LOG DATE(Composite Date for Composite LAP) (MM/DD/YYYY)
CLAB            .                    Provincia:            :County Label
CNTY            .                    SANTA CRUZ            :COUNTY
SLAB            .                          UWI:            :State/Province Label
STAT            .                 No disponible            :STATE or PROVINCE
PROV            .                 No disponible            :STATE or PROVINCE
CTRY            .                     ARGENTINA            :COUNTRY
CONT_REGION     .                                          :Continent Region
SECT            .                       RIGLESS            :Section
TOWN            .                NT Ground Level G.L       :Township
RANG            .                M.R Drilling Floor D.F    :Range
API             .                                          :API NUMBER
UWI             .                                          :UNIQUE WELL ID
LUL             .                  CANADON SECO            :Logging Unit Location
LUN             .                          7008            :Logging Unit Number
LOC             .                          ARCS            :FIELD LOCATION
FL1             .                X: 4.856.702,40           :Field Location Line 1
FL2             .                Y: 2.494.852,45           :Field Location Line 2
LATI            .deg                 0° 0' 0" N            :LATITUDE
LONG            .deg                 0° 0' 0" E            :LONGITUDE
PDAT            .                            GL            :Local Permanent Datum
LMF             .                            GL            :Logging Measured From
APD             .m                      0.00000            :Elevation of Depth Reference (LMF) Above Permanent Datum
EPD             .m                    573.57000            :Elevation of Permanent Datum (PDAT) above Mean Sea Level
EKB             .m                      5.30000            :Elevation of Kelly Bushing Above Permanent Datum
EDF             .m                      5.30000            :Elevation of Drill Floor Above Permanent Datum
EGL             .m                      0.00000            :Elevation of Ground Level Above Permanent Datum
ECF             .m                      -999.25            :Elevation of Casing Flange above Permanent Datum
#--------------------------------------------------
~CURVE INFORMATION
#MNEM           .UNIT                  API CODE            :DESCRIPTION
#----            ------          --------------            -----------------------------
DEPT            .m                                         :                                                        Depth Index
CFTC            .1/s                                       :        (HGNS-H)                (6in)                   Corrected Far Thermal Count Rate
GR              .gAPI                                      :        (HGNS-H)                (6in)                   Gamma Ray
TNPH            .m3/m3                                     :        (HGNS-H)                (6in)                   Thermal Neutron Porosity (Ratio Method) in Selected Lithology
CBL             .mV                                        :        (ASLT-A)                (6in)                   CBL Amplitude
CBLF            .mV                                        :        (ASLT-A)                (6in)                   CBL Amplitude (Fluid Compensated)
TT              .us                                        :        (ASLT-A)                (6in)                   Transit Time for CBL
CCL             .                                          :        (CAL-YA)                (1in)                   Casing Collar Locator Amplitude
#-------------------------------------------------------------
#            DEPT         CFTC           GR         TNPH          CBL         CBLF           TT          CCL 
#                     (HGNS-H)     (HGNS-H)     (HGNS-H)     (ASLT-A)     (ASLT-A)     (ASLT-A)     (CAL-YA) 
#                                                                                                            
#                        (6in)        (6in)        (6in)        (6in)        (6in)        (6in)        (1in) 
~ASCII
# ...
       1065.73320    481.03850     76.79898      0.42240     14.40194     11.52155    278.41860     -0.00171
       1065.88560    473.06050     77.53671      0.42538     14.92458     11.93966    278.57310      0.01976
       1066.03800    487.60410     79.50386      0.40695     15.48224     12.38579    278.43050      0.01747
       1066.19040    473.00860     74.33977      0.42474     15.56883     12.45506    278.39110      0.01126
       1066.34280    487.81810     80.48796      0.41235     15.44137     12.35310    278.31350     -0.00114
       1066.49520    515.37360     78.80162      0.38960     15.77115     12.61692    278.33980      0.02804
       1066.64760    530.78080     78.06371      0.38530     16.36062     13.08850    278.88920      0.01944
       1066.80000    523.37630     73.14526      0.39666     16.85787     13.48630    278.81650     -0.01328
       1066.95240    494.20180     72.86399      0.43622     17.27579     13.82063    278.79180     -0.00902
       1067.10480    497.78400     71.38843      0.42515     17.43884     13.95107    278.71140      0.02103
       1067.25720    518.61830     71.63435      0.39760     17.41078     13.92862    278.62050      0.01827
       1067.40960    536.41970     74.16434      0.37409     17.15735     13.72588    278.45030      0.01537
       1067.56200    519.75850     77.36121      0.38663     16.70522     13.36417    278.46800     -0.00553
       1067.71440    513.25780     77.11543      0.39534     16.32574     13.06059    278.40950      0.01532
       1067.86680    496.26960     79.92579      0.41095     15.92687     12.74150    278.31110      0.03221
       1068.01920    493.54650     83.12277      0.41525     15.39442     12.31553    278.49400      0.01533
       1068.17160    466.03420     87.51423      0.45557     14.67528     11.74022    278.21800      0.00642
       1068.32400    476.55620     82.59575      0.45411     14.06422     11.25138    278.58580      0.02296
       1068.47640    479.42290     78.16914      0.45401     13.73927     10.99142    278.69060      0.02044
       1068.62880    479.64600     73.77744      0.47250     13.46601     10.77281    278.48060      0.00861
       1068.78120    509.61560     76.72859      0.43534     13.33572     10.66858    278.32030      0.00982
       1068.93360    516.05650     75.74503      0.42261     13.50584     10.80467    278.35870     -0.00014
       1069.08600    529.93660     75.00728      0.39686     14.05664     11.24532    278.61800      0.02162
       1069.23840    516.14700     71.91523      0.40796     14.74346     11.79477    278.19240      0.02924
       1069.39080    511.31310     76.83371      0.39617     15.22414     12.17931    278.39800      0.01116
       1069.54320    469.74450     77.81745      0.43957     15.43056     12.34445    278.45770      0.01517
       1069.69560    436.58350     77.81776      0.48591     15.46838     12.37470    278.45640      0.01950
       1069.84800    442.23450     68.71850      0.48384     15.89046     12.71237    278.37940      0.01803
       1070.00040    486.58470     68.71850      0.42354     17.17858     13.74286    278.30690      0.00501
       1070.15280    531.90260     69.84294      0.38631     18.90818     15.12654    278.71670     -0.00057
       1070.30520    555.38970     71.07248      0.36530     19.91656     15.93325    278.72870      0.02403
       1070.45760    566.49650     68.61328      0.36190     19.70261     15.76208    278.53510      0.02126
       1070.61000    555.19370     65.80286      0.38211     19.29450     15.43560    278.38630      0.00408
       1070.76240    561.68820     66.54070      0.39117     19.20005     15.36004    278.29320      0.01555
       1070.91480    620.14250     62.35991      0.35432     18.95488     15.16390    278.03760      0.02625
       1071.06720    693.13820     60.67319      0.32794     18.75632     15.00506    278.39110      0.03051
       1071.21960    755.65110     56.98439      0.31010     18.47470     14.77976    278.22320      0.01125
       1071.37200    783.53860     59.44350      0.30391     17.80915     14.24732    278.29260     -0.00428
       1071.52440    815.31600     61.97306      0.29688     16.85348     13.48278    278.24830      0.01539
       1071.67680    842.57660     63.69456      0.28039     15.47394     12.37915    278.05850      0.03038
       1071.82920    835.31260     66.89169      0.27915     13.71961     10.97569    277.94310      0.05299
       1071.98160    810.15270     62.11379      0.28595     12.11163      9.68930    277.56340      0.04882
       1072.13400    747.96360     57.68703      0.31414     11.37179      9.09743    277.81490      0.03562
       1072.28640    725.46830     51.78492      0.30073     11.62138      9.29710    278.31510      0.02791
       1072.43880    626.37700     53.75224      0.34561     12.31520      9.85216    278.54150      0.01471
       1072.59120    564.77950     61.13007      0.36442     13.55079     10.84063    278.64280     -0.00591
       1072.74360    467.51930     68.01584      0.42569     15.38916     12.31133    279.17970      0.04307
       1072.89600    434.38930     72.79367      0.43335     16.95539     13.56431    279.30140      0.02777
       1073.04840    423.88390     74.51514      0.45043     17.33419     13.86735    279.52430      0.01674
       1073.20080    435.88530     74.26929      0.44961     15.98471     12.78777    278.98750      0.00042
       1073.35320    462.57040     74.55033      0.42452     14.00484     11.20388    288.15480      0.03335
       1073.50560    493.31720     72.09109      0.39145     12.62752     10.10202    283.16380      0.01883
       1073.65800    500.70930     70.61553      0.39590     11.85189      9.48152    283.28290     -0.19577
       1073.81040    480.48870     68.92953      0.41678     11.61697      9.29357    282.97160     -0.22436
       1073.96280    448.09810     69.91282      0.44598     10.81850      8.65480    282.85040      0.06726
       1074.11520    428.69180     67.45362      0.47425      9.19421      7.35536    288.55960     -0.00801
       1074.26760    432.73940     70.54511      0.47696      9.14079      7.31263    277.57780      0.02798
       1074.42000    415.78160     76.44797      0.49421     10.71628      8.57302    277.86930     -0.00906
       1074.57240    457.37900     81.36646      0.42759     11.48179      9.18543    278.05860      0.02559
       1074.72480    484.88620     77.46674      0.39634     11.50529      9.20423    278.23730      0.01045
       1074.87720    530.18350     74.76118      0.34903     11.68724      9.34979    278.51610      0.01846
       1075.02960    508.89630     74.76112      0.36893     11.97236      9.57789    278.24660      0.01422
       1075.18200    489.45350     76.13139      0.38101     12.25614      9.80491    279.07460      0.03959
       1075.33440    450.62100     75.88541      0.42092     12.32167      9.85733    278.67540      0.01438
       1075.48680    411.84100     74.65587      0.46171     12.19535      9.75628    278.85170      0.02794
       1075.63920    393.28320     76.62334      0.47938     12.09608      9.67687    278.55000     -0.01118
       1075.79160    401.50260     81.04994      0.46998     12.25183      9.80147    278.28520      0.02996
       1075.94400    440.73900     76.86913      0.42200     13.30608     10.64486    278.30660      0.02238
       1076.09640    447.17850     80.80402      0.40928     15.56225     12.44980    278.86970      0.02964
       1076.24880    433.32280     77.11501      0.42822     18.38113     14.70490    279.12350      0.06241
       1076.40120    422.69510     82.77126      0.44027     21.91203     17.52962    279.54540      0.03573
       1076.55360    449.39700     76.97424      0.39211     26.45225     21.16180    280.06960      0.01946
       1076.70600    445.33190     79.01237      0.39682     30.59286     24.47429    280.32850      0.04058
       1076.85840    452.76050     73.35594      0.39103     30.73617     24.58894    280.52770     -0.02888
