~VERSION INFORMATION 
VERS  .    2.0                                     :CWLS Log ASCII Standard - VERSION 2.0
WRAP  .    NO                                      :One Line per Depth step
PROD  .    Schlumberger Technology Corp.           :LAS Producer
PROG  .    Horizon LASWriter 8.0.95333.3100        :LAS Program name and version
SOURCE.    CARRERA_02: CBL-VDL-NL-GR-Log[4]/Up     :Run&Pass Information
CREA  .    06/11/2018                              :LAS Creation date {MM/DD/YYYY}
#--------------------------------------------------
~WELL INFORMATION 
#MNEM           .UNIT                      DATA            :DESCRIPTION
#----            ------          --------------            -----------------------------
STRT            .m                    454.91400            :START DEPTH
STOP            .m                   2158.89840            :STOP DEPTH
STEP            .m                       0.1524            :STEP
NULL            .                       -999.25            :NULL VALUE
COMP            .                       YPF S.A            :COMPANY
WELL            .                YPF.SC.ECH-212            :WELL NAME
FLD             .                ESTANCIA CHOLITA          :FIELD NAME
RIGN            .                                          :Rig Name
RIGTYP          .                                          :Rig Type
SON             .                 TICKET NUMBER            :Service Order Number
SRVC            .                  Schlumberger            :SERVICE COMPANY
DATE            .                    06/08/2018            :LOG DATE(Composite Date for Composite LAP) (MM/DD/YYYY)
CLAB            .                       County:            :County Label
CNTY            .                    SANTA CRUZ            :COUNTY
SLAB            .                          UWI:            :State/Province Label
STAT            .                AR030000968000            :STATE or PROVINCE
PROV            .                AR030000968000            :STATE or PROVINCE
CTRY            .                     ARGENTINA            :COUNTRY
CONT_REGION     .                                          :Continent Region
SECT            .                       Rigless            :Section
TOWN            .                    4856781.85            :Township
RANG            .                    2459103.27            :Range
API             .                                          :API NUMBER
UWI             .                                          :UNIQUE WELL ID
LUL             .                          ARCS            :Logging Unit Location
LUN             .                          7062            :Logging Unit Number
LOC             .                          ARCS            :FIELD LOCATION
FL1             .                                          :Field Location Line 1
FL2             .                                          :Field Location Line 2
LATI            .deg                 -48.567818            :LATITUDE
LONG            .deg                  24.591030            :LONGITUDE
PDAT            .                            GL            :Local Permanent Datum
LMF             .                            GL            :Logging Measured From
APD             .m                      0.00000            :Elevation of Depth Reference (LMF) Above Permanent Datum
EPD             .m                    554.51000            :Elevation of Permanent Datum (PDAT) above Mean Sea Level
EKB             .m                      0.00000            :Elevation of Kelly Bushing Above Permanent Datum
EDF             .m                      0.00000            :Elevation of Drill Floor Above Permanent Datum
EGL             .m                      0.00000            :Elevation of Ground Level Above Permanent Datum
ECF             .m                      -999.25            :Elevation of Casing Flange above Permanent Datum
#--------------------------------------------------
~CURVE INFORMATION
#MNEM           .UNIT                  API CODE            :DESCRIPTION
#----            ------          --------------            -----------------------------
DEPT            .m                                         :                                                        Depth Index
CBLF            .mV                                        :        (DSLT-H)                (6in)                   CBL Amplitude (Fluid Compensated)
TT              .us                                        :        (DSLT-H)                (6in)                   Transit Time for CBL
CTEM            .degC                                      :        (HGNS-H)                (6in)                   Cartridge Temperature
CFTC            .1/s                                       :        (HGNS-H)                (2in)                   Corrected Far Thermal Count Rate
CCL             .                                          :        (CAL-YA)                (1in)                   Casing Collar Locator Amplitude
TENS            .lbf                                       :        (WLWorkflow)            (6in)                   Cable Tension
DEPTH           .m                                         :        (WLWorkflow)            (6in)                   Depth Index
SDEV            .deg                                       :        (HGNS-H)                (6in)                   Sonde Deviation
TNPH            .V/V                                       :        (HGNS-H)                (6in)                   Thermal Neutron Porosity (Ratio Method) in Selected Lithology
GR              .gAPI                                      :        (HGNS-H)                (6in)                   Gamma Ray
#-------------------------------------------------------------
#            DEPT         CBLF           TT         CTEM         CFTC          CCL         TENS        DEPTH         SDEV         TNPH           GR 
#                     (DSLT-H)     (DSLT-H)     (HGNS-H)     (HGNS-H)     (CAL-YA)  (WLWorkflo)  (WLWorkflo)     (HGNS-H)     (HGNS-H)     (HGNS-H) 
#                                                                                                                                                   
#                        (6in)        (6in)        (6in)        (2in)        (1in)        (6in)        (6in)        (6in)        (6in)        (6in) 
~ASCII
# ...
       1812.79800     14.43428    271.27400    101.11380   1074.91300      0.05218   2243.74994   1812.79911      -999.25      0.21782     69.57073
       1812.95040      9.42193    270.93290    101.11380   1031.70900      0.16608   2226.77777   1812.94883      -999.25      0.22848     95.09276
       1813.10280      6.08283    271.20240    101.11380    987.74590      0.07267   2238.49998   1813.09915      -999.25      0.24597    113.35590
       1813.25520      4.19531    271.69130    101.11380   1070.47300      0.05884   2253.99966   1813.25165      -999.25      0.21970    114.93700
       1813.40760      3.21556    273.00830    101.11380   1217.54600      0.05965   2241.44430   1813.40998      -999.25      0.19459    111.65880
       1813.56000      2.94074    272.93860    101.11380   1348.17100      0.11807   2243.62518   1813.55889      -999.25      0.18392     98.66389
       1813.71240      3.11222    274.50720    101.11380   1441.50600     -0.07731   2242.00003   1813.70801      -999.25      0.17856     89.79519
       1813.86480      3.49219    273.62330    101.11380   1496.42100      0.03700   2248.00018   1813.86774      -999.25      0.16732     84.87833
       1814.01720      3.72317    272.56910    101.11380   1546.27400      0.08020   2255.24960   1814.01895      -999.25      0.16228     92.25396
       1814.16960      3.65062    274.06340    101.11380   1555.56800      0.17593   2261.22277   1814.17057      -999.25      0.15888     99.98103
       1814.32200      3.64703    274.18190    101.11380   1560.73000      0.10189   2247.62520   1814.32375      -999.25      0.15086     91.05389
       1814.47440      3.91935    272.09340    101.11380   1585.50000     -0.00566   2245.77795   1814.47904      -999.25      0.13996     86.60502
       1814.62680      4.12109    271.04120    101.11380   1527.91200      0.01449   2252.37429   1814.63045      -999.25      0.15272     92.69297
       1814.77920      4.05144    273.60390    101.11380   1433.65300      0.03161   2252.77670   1814.78327      -999.25      0.16844     95.85419
       1814.93160      3.91232    272.44580    101.11380   1400.24000      0.14436   2222.99985   1814.93271      -999.25      0.17627     93.04446
       1815.08400      3.63368    273.28170    101.11380   1450.76500      0.06930   2232.11114   1815.08384      -999.25      0.16391     78.99528
       1815.23640      3.27566    273.73930    101.11380   1460.90200      0.02806   2247.66679   1815.24160      -999.25      0.15996     78.20495
       1815.38880      2.97023    274.53790    101.11380   1379.81500      0.08611   2262.37379   1815.39150      -999.25      0.17291     77.56088
       1815.54120      2.71382    276.32230    101.11380   1286.59600      0.08402   2261.66564   1815.54245      -999.25      0.19345     86.22448
       1815.69360      2.56210    275.37810    101.11380   1267.99200      0.05664   2243.33337   1815.69796      -999.25      0.19364     95.59009
       1815.84600      2.46058    275.71440    101.11380   1269.10700      0.04132   2240.44435   1815.85374      -999.25      0.19497    102.96580
       1815.99840      2.41462    276.10410    101.11380   1282.97800      0.05419   2246.87501   1816.00110      -999.25      0.19134    107.88260
       1816.15080      2.37545    276.36320    101.11380   1272.48400      0.11189   2256.11061   1816.14866      -999.25      0.19473    117.48290
       1816.30320      2.44323    275.26250    101.11380   1329.84800      0.09314   2259.77725   1816.30417      -999.25      0.18764    127.60990
       1816.45560      2.72526    274.73510    101.11380   1400.23100      0.02653   2260.77765   1816.45883      -999.25      0.18768    117.33700
       1816.60800      2.90258    274.63340    101.11380   1650.37900      0.04154   2242.99998   1816.61433      -999.25      0.15314     98.37092
       1816.76040      2.80989    274.62430    101.11380   1938.49900      0.07847   2241.25007   1816.76310      -999.25      0.12488     75.65835
       1816.91280      2.78207    275.20490    101.11380   2163.93200      0.15796   2237.44428   1816.90925      -999.25      0.10697     79.60957
       1817.06520      3.00705    273.75510    101.11380   2177.26500      0.07939   2246.66684   1817.06250      -999.25      0.10711     79.08282
       1817.21760      3.16217    272.89830    101.11380   1991.23900      0.03457   2253.66694   1817.21631      -999.25      0.12042     80.01962
       1817.37000      3.02253    274.25740    101.11380   1704.04800      0.02034   2242.77787   1817.37012      -999.25      0.14067     80.80987
       1817.52240      2.85098    274.72970    101.11380   1414.62800      0.03403   2243.22232   1817.52224      -999.25      0.16990     89.53191
       1817.67480      2.76012    274.20930    101.11380   1164.10600      0.03301   2224.99998   1817.67662      -999.25      0.20991    120.90760
       1817.82720      2.64650    275.15010    101.39340   1001.04200      0.07444   2235.88882   1817.83240      -999.25      0.24088    140.13650
       1817.97960      2.61701    277.28550    101.39340    871.46410      0.05658   2239.12495   1817.97785      -999.25      0.27389    151.37520
       1818.13200      2.79373    283.39910    101.39340    857.60180      0.06348   2272.55539   1818.12676      -999.25      0.28516    141.77520
       1818.28440      3.07416    278.15260    101.39340    972.64320      0.06491   2259.44453   1818.28283      -999.25      0.25168    128.54620
       1818.43680      3.32398    277.46290    101.39340   1182.85300     -0.31403   2232.66664   1818.43974      -999.25      0.18949    103.05400
       1818.58920      3.52174    275.01310    101.39340   1313.47800      2.36959   2226.33332   1818.59610      -999.25      0.16964     75.65852
       1818.74160      3.47766    275.83950    101.39340   1388.98800      0.05165   2224.87499   1818.74525      -999.25      0.16572     56.45846
       1818.89400      4.12489    271.77940    101.39340   1381.23400      0.13135   2272.11027   1818.89328      -999.25      0.16702     59.70699
       1819.04640      5.14058    278.28950    101.39340   1400.88800     -0.00398   2291.74958   1819.04497      -999.25      0.16045     75.62926
       1819.19880      4.42785    276.07320    101.39340   1356.24500     -0.00710   2265.66724   1819.19469      -999.25      0.17992     83.03457
       1819.35120      3.02221    274.14750    101.39340   1388.88700     -0.04559   2245.22222   1819.35302      -999.25      0.17813     80.22475
       1819.50360      2.40563    276.08060    101.39340   1431.20000      0.06658   2224.66681   1819.51021      -999.25      0.17012     68.51749
       1819.65600      2.21478    275.64280    101.39340   1474.32400      0.08711   2253.75012   1819.65711      -999.25      0.16090     76.33214
       1819.80840      2.25276    275.99650    101.39340   1419.17500      0.05547   2293.77735   1819.80824      -999.25      0.17333     85.90349
       1819.96080      2.36895    274.71290    101.39340   1378.79800     -0.04304   2277.37529   1819.96096      -999.25      0.17997     97.84439
       1820.11320      2.40242    274.95960    101.39340   1385.37600     -0.00922   2241.44430   1820.11332      -999.25      0.17447     99.24901
       1820.26560      2.40436    275.12370    101.39340   1418.76900      0.02947   2220.87496   1820.26671      -999.25      0.16296     96.35072
       1820.41800      2.44529    275.18150    101.39340   1457.72800      0.06503   2235.22227   1820.41840      -999.25      0.15147     94.47806
       1820.57040      2.50764    275.11630    101.39340   1370.85500      0.03893   2280.74967   1820.57278      -999.25      0.16941    100.53650
       1820.72280      2.51711    273.24950    101.39340   1300.30000      0.09714   2292.99951   1820.72038      -999.25      0.18250    113.76640
       1820.87520      2.48566    275.16990    101.39340   1240.47100      0.10775   2269.22147   1820.87560      -999.25      0.20088    115.63930
       1821.02760      2.53965    273.78830    101.39340   1325.00000      0.10109   2233.55576   1821.03619      -999.25      0.18022    105.89310
