~VERSION INFORMATION 
VERS  .    2.0                                     :CWLS Log ASCII Standard - VERSION 2.0
WRAP  .    NO                                      :One Line per Depth step
PROD  .    Schlumberger Technology Corp.           :LAS Producer
PROG  .    Horizon LASWriter 8.0.95333.3100        :LAS Program name and version
SOURCE.    CARRERA_02: CBL-VDL-NL-GR-Log[4]/Up     :Run&Pass Information
CREA  .    06/11/2018                              :LAS Creation date {MM/DD/YYYY}
#--------------------------------------------------
~WELL INFORMATION 
#MNEM           .UNIT                      DATA            :DESCRIPTION
#----            ------          --------------            -----------------------------
STRT            .m                    454.91400            :START DEPTH
STOP            .m                   2158.89840            :STOP DEPTH
STEP            .m                       0.1524            :STEP
NULL            .                       -999.25            :NULL VALUE
COMP            .                       YPF S.A            :COMPANY
WELL            .                YPF.SC.ECH-212            :WELL NAME
FLD             .                ESTANCIA CHOLITA          :FIELD NAME
RIGN            .                                          :Rig Name
RIGTYP          .                                          :Rig Type
SON             .                 TICKET NUMBER            :Service Order Number
SRVC            .                  Schlumberger            :SERVICE COMPANY
DATE            .                    06/08/2018            :LOG DATE(Composite Date for Composite LAP) (MM/DD/YYYY)
CLAB            .                       County:            :County Label
CNTY            .                    SANTA CRUZ            :COUNTY
SLAB            .                          UWI:            :State/Province Label
STAT            .                AR030000968000            :STATE or PROVINCE
PROV            .                AR030000968000            :STATE or PROVINCE
CTRY            .                     ARGENTINA            :COUNTRY
CONT_REGION     .                                          :Continent Region
SECT            .                       Rigless            :Section
TOWN            .                    4856781.85            :Township
RANG            .                    2459103.27            :Range
API             .                                          :API NUMBER
UWI             .                                          :UNIQUE WELL ID
LUL             .                          ARCS            :Logging Unit Location
LUN             .                          7062            :Logging Unit Number
LOC             .                          ARCS            :FIELD LOCATION
FL1             .                                          :Field Location Line 1
FL2             .                                          :Field Location Line 2
LATI            .deg                 -48.567818            :LATITUDE
LONG            .deg                  24.591030            :LONGITUDE
PDAT            .                            GL            :Local Permanent Datum
LMF             .                            GL            :Logging Measured From
APD             .m                      0.00000            :Elevation of Depth Reference (LMF) Above Permanent Datum
EPD             .m                    554.51000            :Elevation of Permanent Datum (PDAT) above Mean Sea Level
EKB             .m                      0.00000            :Elevation of Kelly Bushing Above Permanent Datum
EDF             .m                      0.00000            :Elevation of Drill Floor Above Permanent Datum
EGL             .m                      0.00000            :Elevation of Ground Level Above Permanent Datum
ECF             .m                      -999.25            :Elevation of Casing Flange above Permanent Datum
#--------------------------------------------------
~CURVE INFORMATION
#MNEM           .UNIT                  API CODE            :DESCRIPTION
#----            ------          --------------            -----------------------------
DEPT            .m                                         :                                                        Depth Index
CBLF            .mV                                        :        (DSLT-H)                (6in)                   CBL Amplitude (Fluid Compensated)
TT              .us                                        :        (DSLT-H)                (6in)                   Transit Time for CBL
CTEM            .degC                                      :        (HGNS-H)                (6in)                   Cartridge Temperature
CFTC            .1/s                                       :        (HGNS-H)                (2in)                   Corrected Far Thermal Count Rate
CCL             .                                          :        (CAL-YA)                (1in)                   Casing Collar Locator Amplitude
TENS            .lbf                                       :        (WLWorkflow)            (6in)                   Cable Tension
DEPTH           .m                                         :        (WLWorkflow)            (6in)                   Depth Index
SDEV            .deg                                       :        (HGNS-H)                (6in)                   Sonde Deviation
TNPH            .V/V                                       :        (HGNS-H)                (6in)                   Thermal Neutron Porosity (Ratio Method) in Selected Lithology
GR              .gAPI                                      :        (HGNS-H)                (6in)                   Gamma Ray
#-------------------------------------------------------------
#            DEPT         CBLF           TT         CTEM         CFTC          CCL         TENS        DEPTH         SDEV         TNPH           GR 
#                     (DSLT-H)     (DSLT-H)     (HGNS-H)     (HGNS-H)     (CAL-YA)  (WLWorkflo)  (WLWorkflo)     (HGNS-H)     (HGNS-H)     (HGNS-H) 
#                                                                                                                                                   
#                        (6in)        (6in)        (6in)        (2in)        (1in)        (6in)        (6in)        (6in)        (6in)        (6in) 
~ASCII
# ...
        681.22800     20.19048    269.77200     52.46061    421.00890      0.23127   1076.79999    681.23216      -999.25      0.39663     67.33210
        681.38040     16.47055    269.38790     52.46061    434.17060      0.12333   1081.10014    681.38557      -999.25      0.40581     69.06387
        681.53280     12.69757    269.21150     52.46061    453.99170      0.17299   1092.00000    681.53848      -999.25      0.40501     78.15717
        681.68520     10.34571    269.38300     52.46061    458.35960      0.25228   1084.55568    681.68617      -999.25      0.40401     77.72388
        681.83760      9.32496    269.28950     52.46061    477.42420     -0.27869   1092.39993    681.83465      -999.25      0.38436     75.77566
        681.99000      8.91961    269.41490     52.46061    480.10350     -0.31599   1091.10009    681.98984      -999.25      0.37918     71.44546
        682.14240      9.41973    269.34540     52.74022    482.59050     -0.68461   1092.89991    682.14326      -999.25      0.36578     75.72733
        682.29480     11.00895    269.18520     52.74022    467.90580      0.34015   1093.40011    682.29718      -999.25      0.38855     78.54195
        682.44720     13.55251    269.00960     52.74022    461.98490     -0.11902   1089.30004    682.44958      -999.25      0.40023     77.02622
        682.59960     16.77238    269.40410     52.74022    458.91880     -0.09209   1092.70005    682.60376      -999.25      0.40045     72.74470
        682.75200     19.98561    269.62730     52.74022    475.32450      0.08692   1096.10006    682.75667      -999.25      0.38446     70.14644
        682.90440     22.18783    269.64560     52.74022    475.69890      0.42588   1093.99990    682.90983      -999.25      0.38825     70.79601
        683.05680     22.64408    269.51450     52.74022    512.42860     -0.06969   1093.11123    683.05636      -999.25      0.34522     72.91306
        683.20920     23.09485    269.31330     52.74022    563.29390      0.02786   1090.63631    683.20950      -999.25      0.30371     68.14980
        683.36160     25.12984    269.51140     52.74022    586.60580      0.22549   1092.99995    683.36454      -999.25      0.29127     67.93364
        683.51400     27.81622    269.80090     52.74022    592.13350      0.06095   1091.70010    683.51435      -999.25      0.28666     62.13566
        683.66640     30.25479    270.12500     52.74022    557.30700      0.42679   1089.80002    683.66878      -999.25      0.31686     64.95057
        683.81880     32.76888    270.03660     52.74022    561.13580      0.54039   1093.30007    683.82194      -999.25      0.31727     65.16675
        683.97120     35.66048    270.26200     52.74022    550.98990      0.82052   1095.19993    683.97612      -999.25      0.33204     65.16698
        684.12360     37.66701    270.30870     52.74022    566.88980      0.69499   1090.19995    684.12852      -999.25      0.32026     68.41446
        684.27600     37.80349    270.16870     52.74022    566.12590      1.10184   1096.39996    684.28219      -999.25      0.33127     67.11533
        684.42840     36.93581    270.13480     52.74022    561.54180      0.13721   1089.88882    684.43050      -999.25      0.33862     72.52785
        684.58080     35.99713    270.04080     52.74022    545.46580      0.53260   1091.89996    684.57962      -999.25      0.34852     73.61044
        684.73320     34.98066    270.19650     52.74022    535.51640     -0.30155   1094.30002    684.73456      -999.25      0.35431     72.02307
        684.88560     33.35786    270.44570     52.74022    530.32890      0.26268   1088.80007    684.88874      -999.25      0.35865     69.64185
        685.03800     31.84119    270.37230     52.74022    537.19540     -0.50397   1089.80002    685.04216      -999.25      0.34895     66.61063
        685.19040     31.09004    270.40000     52.74022    545.43460      0.52661   1087.39996    685.19659      -999.25      0.34210     73.39465
        685.34280     29.90487    270.31890     52.74022    571.10680      0.05971   1080.77776    685.34264      -999.25      0.32759     72.74474
        685.49520     28.19332    269.88980     52.74022    584.50080     -0.05433   1095.00007    685.48996      -999.25      0.32324     75.12663
        685.64760     27.06133    270.03020     52.74022    596.96480      0.21385   1092.20008    685.64261      -999.25      0.31367     70.74773
        685.80000     26.68015    269.91310     52.74022    576.45570      0.13066   1098.69998    685.79628      -999.25      0.33296     77.02653
        685.95240     27.71272    270.11850     52.74022    563.83690     -0.28496   1103.40006    685.95122      -999.25      0.34203     76.16019
        686.10480     30.65389    270.18970     52.74022    565.87030      0.32948   1094.69995    686.10693      -999.25      0.34401     75.55895
        686.25720     34.13743    270.23110     52.74022    589.79030      0.29907   1099.60012    686.26187      -999.25      0.32471     70.29054
        686.40960     36.06887    270.46260     53.01984    601.48410      0.24205   1098.59994    686.41528      -999.25      0.31861     64.22858
        686.56200     34.70406    270.23510     53.01984    609.15330      0.07028   1097.99993    686.56895      -999.25      0.30672     67.26004
        686.71440     30.75130    270.04300     53.01984    596.52610      0.60931   1096.55553    686.71678      -999.25      0.31399     69.28052
        686.86680     26.55057    269.74430     53.01984    594.01250      0.02765   1090.79997    686.86181      -999.25      0.31073     73.73060
        687.01920     23.53907    269.85590     53.01984    577.60780      0.41817   1090.79997    687.01523      -999.25      0.31120     74.81308
        687.17160     21.77216    270.05230     53.01984    537.85800     -0.45191   1091.60006    687.17068      -999.25      0.34046     76.97819
        687.32400     20.36801    270.06810     53.01984    518.56160     -0.01546   1107.00015    687.32511      -999.25      0.34130     78.59041
        687.47640     19.73561    270.02480     53.01984    506.48640     -0.52745   1096.50000    687.47954      -999.25      0.33174     73.82706
        687.62880     21.00825    269.92950     53.01984    475.21450      1.04723   1091.60006    687.63118      -999.25      0.35192     69.16055
        687.78120     23.73426    270.16200     53.01984    419.67680      0.41031   1100.20013    687.78409      -999.25      0.41190     67.42814
        687.93360     26.91504    270.33550     53.01984    371.20390     -0.38215   1091.00005    687.93801      -999.25      0.46607     70.24268
        688.08600     29.70259    270.52730     53.01984    383.20430     -0.14134   1107.60017    688.09092      -999.25      0.43784     71.66167
        688.23840     31.20011    270.58970     53.01984    369.49950     -0.23261   1108.33327    688.23937      -999.25      0.47649     69.06371
        688.39080     31.71961    270.72670     53.01984    364.74580     -1.35281   1103.50010    688.38861      -999.25      0.47369     75.19801
        688.54320     32.49551    270.66830     53.01984    357.11570     -0.11461   1095.00007    688.54304      -999.25      0.49515     74.54848
        688.69560     33.73216    270.57140     53.01984    371.01350     -0.07605   1084.60019    688.69849      -999.25      0.47625     73.89953
        688.84800     33.30671    270.45100     53.01984    379.40250      0.20765   1103.40006    688.85419      -999.25      0.45266     63.65184
        689.00040     30.75496    270.56930     53.01984    365.30660     -0.09975   1088.22231    689.00109      -999.25      0.46607     61.48708
        689.15280     29.18922    270.42970     53.01984    375.96910      0.23289   1096.54541    689.15472      -999.25      0.45359     62.92982
        689.30520     28.91205    270.71230     53.01984    388.93460     -0.22440   1089.88882    689.30927      -999.25      0.42710     64.87816
        689.45760     27.79771    270.46370     53.01984    386.84270      0.06093   1093.09999    689.45642      -999.25      0.42870     63.57917
