~VERSION INFORMATION 
VERS  .    2.0                                     :CWLS Log ASCII Standard - VERSION 2.0
WRAP  .    NO                                      :One Line per Depth step
PROD  .    Schlumberger Technology Corp.           :LAS Producer
PROG  .    Horizon LASWriter 6.2.64464.3100        :LAS Program name and version
SOURCE.    1-Log[5]/Up                             :Run&Pass Information
CREA  .    01/05/2017                              :LAS Creation date {MM/DD/YYYY}
#--------------------------------------------------
~WELL INFORMATION 
#MNEM           .UNIT                      DATA            :DESCRIPTION
#----            ------          --------------            -----------------------------
STRT            .m                     16.91640            :START DEPTH
STOP            .m                   1777.89840            :STOP DEPTH
STEP            .m                       0.1524            :STEP
NULL            .                       -999.25            :NULL VALUE
COMP            .                      YPF S.A.            :COMPANY
WELL            .                 YPF.SC.LC-941            :WELL NAME
FLD             .                 LOMAS DEL CUY            :FIELD NAME
RIGN            .                                          :Rig Name
RIGTYP          .                                          :Rig Type
SON             .                                          :Service Order Number
SRVC            .                  Schlumberger            :SERVICE COMPANY
DATE            .                    01/05/2017            :LOG DATE(Composite Date for Composite LAP) (MM/DD/YYYY)
CLAB            .                    Provincia:            :County Label
CNTY            .                    SANTA CRUZ            :COUNTY
SLAB            .                          UWI:            :State/Province Label
STAT            .                 No disponible            :STATE or PROVINCE
PROV            .                 No disponible            :STATE or PROVINCE
CTRY            .                     ARGENTINA            :COUNTRY
CONT_REGION     .                                          :Continent Region
SECT            .                       RIGLESS            :Section
TOWN            .                NT Ground Level G.L       :Township
RANG            .                M.R Drilling Floor D.F    :Range
API             .                                          :API NUMBER
UWI             .                                          :UNIQUE WELL ID
LUL             .                  CANADON SECO            :Logging Unit Location
LUN             .                          7008            :Logging Unit Number
LOC             .                          ARCS            :FIELD LOCATION
FL1             .                X: 4.856.702,40           :Field Location Line 1
FL2             .                Y: 2.494.852,45           :Field Location Line 2
LATI            .deg                 0° 0' 0" N            :LATITUDE
LONG            .deg                 0° 0' 0" E            :LONGITUDE
PDAT            .                            GL            :Local Permanent Datum
LMF             .                            GL            :Logging Measured From
APD             .m                      0.00000            :Elevation of Depth Reference (LMF) Above Permanent Datum
EPD             .m                    573.57000            :Elevation of Permanent Datum (PDAT) above Mean Sea Level
EKB             .m                      5.30000            :Elevation of Kelly Bushing Above Permanent Datum
EDF             .m                      5.30000            :Elevation of Drill Floor Above Permanent Datum
EGL             .m                      0.00000            :Elevation of Ground Level Above Permanent Datum
ECF             .m                      -999.25            :Elevation of Casing Flange above Permanent Datum
#--------------------------------------------------
~CURVE INFORMATION
#MNEM           .UNIT                  API CODE            :DESCRIPTION
#----            ------          --------------            -----------------------------
DEPT            .m                                         :                                                        Depth Index
CFTC            .1/s                                       :        (HGNS-H)                (6in)                   Corrected Far Thermal Count Rate
GR              .gAPI                                      :        (HGNS-H)                (6in)                   Gamma Ray
TNPH            .m3/m3                                     :        (HGNS-H)                (6in)                   Thermal Neutron Porosity (Ratio Method) in Selected Lithology
CBL             .mV                                        :        (ASLT-A)                (6in)                   CBL Amplitude
CBLF            .mV                                        :        (ASLT-A)                (6in)                   CBL Amplitude (Fluid Compensated)
TT              .us                                        :        (ASLT-A)                (6in)                   Transit Time for CBL
CCL             .                                          :        (CAL-YA)                (1in)                   Casing Collar Locator Amplitude
#-------------------------------------------------------------
#            DEPT         CFTC           GR         TNPH          CBL         CBLF           TT          CCL 
#                     (HGNS-H)     (HGNS-H)     (HGNS-H)     (ASLT-A)     (ASLT-A)     (ASLT-A)     (CAL-YA) 
#                                                                                                            
#                        (6in)        (6in)        (6in)        (6in)        (6in)        (6in)        (1in) 
~ASCII
# ...
       1764.94440    824.91300     71.80950      0.29168     12.06585      9.65268    286.60580      0.02947
       1765.09680    890.88350     68.61249      0.26945     11.12046      8.89637    284.20050      0.01823
       1765.24920    963.63480     62.73772      0.23768     10.48527      8.38821    283.72790      0.01117
       1765.40160    894.42250     61.50801      0.26663     11.14499      8.91600    285.40250     -3.26928
       1765.55400    843.90800     60.91069      0.28534     12.17934      9.74347    283.40020     -0.02668
       1765.70640    760.88760     58.59973      0.32650     13.45828     10.76663    288.62010      0.07358
       1765.85880    843.14140     55.40277      0.29257     17.09009     13.67207    282.13720     -0.00559
       1766.01120    934.59910     50.90577      0.27536     22.98511     18.38809    279.72930      0.01790
       1766.16360   1086.91900     48.02480      0.23683     27.88907     22.31126    280.58840      0.05730
       1766.31600   1186.01800     47.14648      0.22215     31.72092     25.37674    280.28560      0.02173
       1766.46840   1225.15600     51.01098      0.21239     34.65116     27.72093    280.69540      0.00306
       1766.62080   1142.20200     56.14043      0.23084     35.02873     28.02298    280.44690      0.01565
       1766.77320   1061.88700     61.19954      0.25551     32.31978     25.85583    280.27670      0.04075
       1766.92560   1005.54000     68.79583      0.26888     28.21221     22.56977    280.22010      0.04855
       1767.07800   1030.09000     67.54660      0.24328     25.00709     20.00567    280.17870      0.07371
       1767.23040    998.29080     71.23543      0.24330     23.41005     18.72804    280.41740      0.02440
       1767.38280    962.35790     71.67263      0.27154     22.90859     18.32687    279.95140     -0.00045
       1767.53520    932.78910     76.91904      0.29015     23.71681     18.97345    280.50100      0.04145
       1767.68760    975.24790     74.76028      0.26327     26.52921     21.22337    279.82620      0.03172
       1767.84000    991.60420     69.38280      0.25002     29.88684     23.90947    280.06320      0.01162
       1767.99240    913.35480     75.06647      0.27222     30.85002     24.68002    280.09960      0.01626
       1768.14480    800.83640     85.53741      0.29683     28.47286     22.77829    279.37390     -0.01491
       1768.29720    686.86560     89.38472      0.33713     25.09431     20.07545    279.73360      0.01748
       1768.44960    678.01190     91.98555      0.32942     22.66293     18.13034    279.24470      0.02710
       1768.60200    683.67820     85.69019      0.32272     20.84791     16.67833    279.70640      0.01542
       1768.75440    726.96320     88.53188      0.30269     20.21585     16.17268    279.67980     -0.07171
       1768.90680    723.73660     84.22190      0.30730     20.66883     16.53506    279.48040     -0.03782
       1769.05920    688.01560     88.15633      0.33426     21.35942     17.08754    279.52310      0.02589
       1769.21160    693.12100     84.38567      0.33752     21.81157     17.44926    279.70960      0.02532
       1769.36400    745.17360     79.48203      0.31726     21.54004     17.23203    280.04810      0.02903
       1769.51640    823.86660     70.82550      0.28153     21.54232     17.23386    279.20060      0.03836
       1769.66880    828.11610     72.02349      0.28539     21.24379     16.99503    279.65820      0.04306
       1769.82120    782.56120     78.46794      0.31147     20.75089     16.60071    279.29710      0.10146
       1769.97360    747.89760     84.20657      0.32980     20.70667     16.56533    278.90460      -999.25
       1770.12600    766.04040     87.38461      0.30061     20.08338     16.06670    280.04950      -999.25
       1770.27840    759.52730     88.80959      0.29653     20.47661     16.38129    279.66960      -999.25
       1770.43080    727.02310     93.58913      0.30684     22.10933     17.68746    279.31810      -999.25
       1770.58320    665.33100     93.28652      0.34822     23.11385     18.49108    279.69160      -999.25
       1770.73560    670.52140     89.74313      0.35440     23.14413     18.51531    279.50530      -999.25
       1770.88800    709.02920     84.00278      0.33361     23.14158     18.51327    280.07920      -999.25
       1771.04040    768.19600     82.01379      0.29888     23.37930     18.70344    279.29470      -999.25
       1771.19280    764.61720     85.66342      0.31494     22.41994     17.93595    279.06250      -999.25
       1771.34520    785.84760     86.49870      0.31477     20.45649     16.36520    279.93430      -999.25
       1771.49760    791.28330     92.58817      0.31085     18.32792     14.66233    278.58110      -999.25
       1771.65000    822.71690     91.18383      0.29576     16.34777     13.07822    276.07820      -999.25
       1771.80240    805.87990     87.09660      0.30903     14.84830     11.87864    276.38600      -999.25
       1771.95480    774.13690      -999.25      0.32327     14.24304     11.39443    279.12750      -999.25
       1772.10720    756.59300      -999.25      0.32384     14.58501     11.66800    277.80160      -999.25
       1772.25960    747.37920      -999.25      0.33134     15.13973     12.11179    279.02870      -999.25
       1772.41200    811.54100      -999.25      0.30090     15.38751     12.31001    278.38100      -999.25
       1772.56440    822.99220      -999.25      0.28541     15.05918     12.04735    278.07890      -999.25
       1772.71680    834.53190      -999.25      0.27274     14.74739     11.79791    277.93510      -999.25
       1772.86920    774.35000      -999.25      0.29901     14.23663     11.38930    276.52910      -999.25
       1773.02160    752.73430      -999.25      0.29527     13.83639     11.06911    278.63160      -999.25
       1773.17400    734.92830      -999.25      0.29365     14.49851     11.59881    277.61310      -999.25
       1773.32640    750.34370      -999.25      0.28676     14.97528     11.98022    277.53730      -999.25
       1773.47880    750.36720      -999.25      0.28789     14.92298     11.93839    278.72440      -999.25
       1773.63120    731.45100      -999.25      0.30342     14.63497     11.70798    277.28060      -999.25
       1773.78360      -999.25      -999.25      -999.25     13.81852     11.05481    277.45830      -999.25
       1773.93600      -999.25      -999.25      -999.25     13.25161     10.60129    277.46120      -999.25
       1774.08840      -999.25      -999.25      -999.25     13.26544     10.61235    277.65440      -999.25
       1774.24080      -999.25      -999.25      -999.25     13.54607     10.83686    277.45520      -999.25
       1774.39320      -999.25      -999.25      -999.25     13.98510     11.18808    276.06930      -999.25
       1774.54560      -999.25      -999.25      -999.25     14.20206     11.36165    277.33560      -999.25
       1774.69800      -999.25      -999.25      -999.25     14.27947     11.42358    277.74250      -999.25
       1774.85040      -999.25      -999.25      -999.25     14.86363     11.89090    277.94160      -999.25
       1775.00280      -999.25      -999.25      -999.25     15.89508     12.71606    277.85490      -999.25
       1775.15520      -999.25      -999.25      -999.25     16.71515     13.37212    277.58310      -999.25
       1775.30760      -999.25      -999.25      -999.25     17.29845     13.83876    278.31520      -999.25
       1775.46000      -999.25      -999.25      -999.25     17.86851     14.29481    278.05910      -999.25
       1775.61240      -999.25      -999.25      -999.25     17.95653     14.36522    277.39740      -999.25
       1775.76480      -999.25      -999.25      -999.25     17.01268     13.61015    277.83830      -999.25
       1775.91720      -999.25      -999.25      -999.25     15.40739     12.32591    278.52010      -999.25
       1776.06960      -999.25      -999.25      -999.25     13.47171     10.77737    276.18040      -999.25
