~VERSION INFORMATION 
VERS  .    2.0                                     :CWLS Log ASCII Standard - VERSION 2.0
WRAP  .    NO                                      :One Line per Depth step
PROD  .    Schlumberger Technology Corp.           :LAS Producer
PROG  .    Horizon LASWriter 8.0.95333.3100        :LAS Program name and version
SOURCE.    CARRERA_02: CBL-VDL-NL-GR-Log[4]/Up     :Run&Pass Information
CREA  .    06/11/2018                              :LAS Creation date {MM/DD/YYYY}
#--------------------------------------------------
~WELL INFORMATION 
#MNEM           .UNIT                      DATA            :DESCRIPTION
#----            ------          --------------            -----------------------------
STRT            .m                    454.91400            :START DEPTH
STOP            .m                   2158.89840            :STOP DEPTH
STEP            .m                       0.1524            :STEP
NULL            .                       -999.25            :NULL VALUE
COMP            .                       YPF S.A            :COMPANY
WELL            .                YPF.SC.ECH-212            :WELL NAME
FLD             .                ESTANCIA CHOLITA          :FIELD NAME
RIGN            .                                          :Rig Name
RIGTYP          .                                          :Rig Type
SON             .                 TICKET NUMBER            :Service Order Number
SRVC            .                  Schlumberger            :SERVICE COMPANY
DATE            .                    06/08/2018            :LOG DATE(Composite Date for Composite LAP) (MM/DD/YYYY)
CLAB            .                       County:            :County Label
CNTY            .                    SANTA CRUZ            :COUNTY
SLAB            .                          UWI:            :State/Province Label
STAT            .                AR030000968000            :STATE or PROVINCE
PROV            .                AR030000968000            :STATE or PROVINCE
CTRY            .                     ARGENTINA            :COUNTRY
CONT_REGION     .                                          :Continent Region
SECT            .                       Rigless            :Section
TOWN            .                    4856781.85            :Township
RANG            .                    2459103.27            :Range
API             .                                          :API NUMBER
UWI             .                                          :UNIQUE WELL ID
LUL             .                          ARCS            :Logging Unit Location
LUN             .                          7062            :Logging Unit Number
LOC             .                          ARCS            :FIELD LOCATION
FL1             .                                          :Field Location Line 1
FL2             .                                          :Field Location Line 2
LATI            .deg                 -48.567818            :LATITUDE
LONG            .deg                  24.591030            :LONGITUDE
PDAT            .                            GL            :Local Permanent Datum
LMF             .                            GL            :Logging Measured From
APD             .m                      0.00000            :Elevation of Depth Reference (LMF) Above Permanent Datum
EPD             .m                    554.51000            :Elevation of Permanent Datum (PDAT) above Mean Sea Level
EKB             .m                      0.00000            :Elevation of Kelly Bushing Above Permanent Datum
EDF             .m                      0.00000            :Elevation of Drill Floor Above Permanent Datum
EGL             .m                      0.00000            :Elevation of Ground Level Above Permanent Datum
ECF             .m                      -999.25            :Elevation of Casing Flange above Permanent Datum
#--------------------------------------------------
~CURVE INFORMATION
#MNEM           .UNIT                  API CODE            :DESCRIPTION
#----            ------          --------------            -----------------------------
DEPT            .m                                         :                                                        Depth Index
CBLF            .mV                                        :        (DSLT-H)                (6in)                   CBL Amplitude (Fluid Compensated)
TT              .us                                        :        (DSLT-H)                (6in)                   Transit Time for CBL
CTEM            .degC                                      :        (HGNS-H)                (6in)                   Cartridge Temperature
CFTC            .1/s                                       :        (HGNS-H)                (2in)                   Corrected Far Thermal Count Rate
CCL             .                                          :        (CAL-YA)                (1in)                   Casing Collar Locator Amplitude
TENS            .lbf                                       :        (WLWorkflow)            (6in)                   Cable Tension
DEPTH           .m                                         :        (WLWorkflow)            (6in)                   Depth Index
SDEV            .deg                                       :        (HGNS-H)                (6in)                   Sonde Deviation
TNPH            .V/V                                       :        (HGNS-H)                (6in)                   Thermal Neutron Porosity (Ratio Method) in Selected Lithology
GR              .gAPI                                      :        (HGNS-H)                (6in)                   Gamma Ray
#-------------------------------------------------------------
#            DEPT         CBLF           TT         CTEM         CFTC          CCL         TENS        DEPTH         SDEV         TNPH           GR 
#                     (DSLT-H)     (DSLT-H)     (HGNS-H)     (HGNS-H)     (CAL-YA)  (WLWorkflo)  (WLWorkflo)     (HGNS-H)     (HGNS-H)     (HGNS-H) 
#                                                                                                                                                   
#                        (6in)        (6in)        (6in)        (2in)        (1in)        (6in)        (6in)        (6in)        (6in)        (6in) 
~ASCII
# ...
       1242.82200     19.50629    268.64540     78.46490    534.35840      0.08486   1627.11115   1242.82748      -999.25      0.36060     66.73042
       1242.97440     18.28971    269.09300     78.46490    508.34840     -0.01478   1645.25009   1242.97424      -999.25      0.38730     64.38907
       1243.12680     18.19662    268.85050     78.46490    507.97820      0.10245   1633.10006   1243.12867      -999.25      0.39074     59.94035
       1243.27920     19.87896    269.52440     78.46490    496.54290      0.09600   1620.12499   1243.28285      -999.25      0.40349     56.42870
       1243.43160     22.22302    269.65520     78.46490    494.25510      0.04898   1620.22211   1243.42664      -999.25      0.41254     58.53598
       1243.58400     24.34488    269.78070     78.46490    484.32940      0.09112   1629.88889   1243.58074      -999.25      0.42104     62.28222
       1243.73640     25.72865    269.33450     78.46490    489.32320      0.07332   1630.66673   1243.73624      -999.25      0.41915     60.64313
       1243.88880     27.29385    269.48310     78.46490    509.95150      0.10238   1627.77771   1243.89033      -999.25      0.40647     55.49182
       1244.04120     28.19928    270.00080     78.46490    525.22740      0.10532   1623.55557   1244.04443      -999.25      0.40008     52.91619
       1244.19360     27.04663    269.89310     78.46490    554.60630      0.06269   1626.33354   1244.19824      -999.25      0.37682     53.38439
       1244.34600     26.08901    269.76220     78.46490    582.16630      0.09935   1648.22229   1244.35261      -999.25      0.35551     57.59890
       1244.49840     26.98285    269.79670     78.46490    599.75970      0.09203   1645.12509   1244.49951      -999.25      0.33977     58.53558
       1244.65080     28.38906    269.90810     78.46490    595.15820      0.05879   1616.99992   1244.64810      -999.25      0.34427     62.75016
       1244.80320     28.11440    270.13830     78.46490    566.84490      0.00335   1622.55562   1244.80078      -999.25      0.36034     61.93073
       1244.95560     26.18871    270.02870     78.46490    563.79490      0.12383   1636.77771   1244.95770      -999.25      0.36434     64.27240
       1245.10800     25.14870    269.97580     78.46490    538.00520      0.13560   1630.55568   1245.11094      -999.25      0.37763     62.63341
       1245.26040     25.53028    269.76820     78.46490    545.64000      0.10209   1625.87493   1245.26151      -999.25      0.35841     64.62372
       1245.41280     24.78025    269.45160     78.46490    512.77830      0.06621   1638.88889   1245.41066      -999.25      0.38588     61.81366
       1245.56520     22.03105    269.23510     78.74451    537.08400      0.08351   1649.66668   1245.56730      -999.25      0.37135     59.94067
       1245.71760     19.58366    269.39350     78.74451    550.85800      0.02650   1638.11105   1245.72365      -999.25      0.36786     54.55535
       1245.87000     18.47757    269.11430     78.74451    582.19130      0.07131   1645.25009   1245.87016      -999.25      0.35406     53.85310
       1246.02240     17.85621    269.51030     78.74451    605.89870      0.08381   1616.11103   1246.01660      -999.25      0.34404     52.21410
       1246.17480     17.64076    269.55040     78.74451    595.95260      0.06884   1637.55555   1246.17182      -999.25      0.35990     58.06744
       1246.32720     17.68002    269.27250     78.74451    582.16240      0.10013   1642.44447   1246.32873      -999.25      0.37183     61.34509
       1246.47960     17.95973    269.24750     78.74451    540.87880      0.06242   1633.33341   1246.48678      -999.25      0.40045     65.32537
       1246.63200     18.58738    269.12490     78.74451    514.11940     -0.00853   1613.62509   1246.63565      -999.25      0.41507     69.30621
       1246.78440     19.28526    268.97440     78.74451    519.52290     -0.03760   1610.77788   1246.78424      -999.25      0.41293     71.17949
       1246.93680     20.17576    268.81180     78.74451    526.35970      0.04386   1635.22226   1246.94200      -999.25      0.40420     67.66769
       1247.08920     20.49532    269.13960     78.74451    547.00420      0.11027   1622.00012   1247.09126      -999.25      0.37790     59.70656
       1247.24160     20.18769    269.07100     78.74451    533.20580      0.13613   1611.99995   1247.23918      -999.25      0.40335     54.32143
       1247.39400     20.29744    269.37260     78.74451    563.82430      0.07608   1626.00015   1247.39440      -999.25      0.37308     56.42855
       1247.54640     20.67089    269.32330     78.74451    566.09870      0.09300   1636.00010   1247.55019      -999.25      0.36543     62.75027
       1247.69880     20.81790    268.96000     78.74451    574.50780      0.04055   1638.99995   1247.69991      -999.25      0.36011     60.87692
       1247.85120     20.33659    269.20240     78.74451    590.98580      0.08223   1631.33329   1247.84991      -999.25      0.34654     57.13061
       1248.00360     19.28719    269.14500     78.74451    606.28550      0.07608   1629.88889   1248.00626      -999.25      0.32811     51.74538
       1248.15600     18.89503    269.03380     78.74451    630.75460      0.05955   1634.77781   1248.16064      -999.25      0.30665     53.15028
       1248.30840     19.83328    269.06770     78.74451    594.37130      0.11079   1640.62509   1248.31046      -999.25      0.33847     60.64261
       1248.46080     21.29416    269.05670     78.74451    582.91060      0.09035   1638.88889   1248.45754      -999.25      0.34212     59.00387
       1248.61320     22.82984    269.16870     78.74451    572.97090      0.04164   1625.33336   1248.61248      -999.25      0.35433     59.70615
       1248.76560     24.64519    269.56330     78.74451    564.54670      0.06016   1629.22233   1248.76883      -999.25      0.36259     54.55526
       1248.91800     25.38719    269.42310     78.74451    553.82620      0.08429   1627.12509   1248.91689      -999.25      0.37999     56.51646
       1249.07040     24.13635    269.42650     78.74451    544.71530      0.09297   1637.44450   1249.06544      -999.25      0.37967     56.75055
       1249.22280     21.97926    269.51400     78.74451    565.38270      0.13246   1626.11120   1249.22179      -999.25      0.35904     59.09206
       1249.37520     19.79183    269.17490     78.74451    560.04300      0.08889   1619.00005   1249.37702      -999.25      0.36281     62.28196
       1249.52760     17.85763    269.04200     78.74451    556.91640     -0.02370   1640.66668   1249.52744      -999.25      0.36279     63.68703
       1249.68000     16.65698    268.87100     78.74451    533.97210      0.04931   1632.66663   1249.68182      -999.25      0.39259     61.49214
       1249.83240     16.53619    268.70080     78.74451    550.79280      0.06821   1622.66668   1249.83506      -999.25      0.37775     58.68226
       1249.98480     17.81340    269.29180     78.74451    527.87200      0.03207   1638.77784   1249.98944      -999.25      0.40968     58.21397
       1250.13720     20.51244    269.41180     78.74451    558.46530      0.07474   1644.75011   1250.13418      -999.25      0.37800     59.23812
       1250.28960     23.16391    270.04290     78.74451    536.29160      0.12317   1632.77791   1250.28464      -999.25      0.40436     64.85758
       1250.44200     24.55145    269.98900     78.74451    571.45830      0.10642   1616.66675   1250.43817      -999.25      0.35783     69.45290
       1250.59440     25.39539    270.13100     78.74451    533.20090      0.03149   1631.88879   1250.59198      -999.25      0.39375     71.79442
       1250.74680     26.48026    270.35810     78.74451    547.72970      0.04718   1627.55560   1250.74664      -999.25      0.37757     72.02874
       1250.89920     26.74601    269.99240     78.74451    536.27920      0.05631   1625.44442   1250.90214      -999.25      0.39867     69.77494
       1251.05160     26.09732    270.15840     78.74451    577.59450      0.08373   1619.88894   1251.05624      -999.25      0.37082     61.93074
