~VERSION INFORMATION 
VERS  .    2.0                                     :CWLS Log ASCII Standard - VERSION 2.0
WRAP  .    NO                                      :One Line per Depth step
PROD  .    Schlumberger Technology Corp.           :LAS Producer
PROG  .    Horizon LASWriter 6.2.64464.3100        :LAS Program name and version
SOURCE.    1-Log[5]/Up                             :Run&Pass Information
CREA  .    01/05/2017                              :LAS Creation date {MM/DD/YYYY}
#--------------------------------------------------
~WELL INFORMATION 
#MNEM           .UNIT                      DATA            :DESCRIPTION
#----            ------          --------------            -----------------------------
STRT            .m                     16.91640            :START DEPTH
STOP            .m                   1777.89840            :STOP DEPTH
STEP            .m                       0.1524            :STEP
NULL            .                       -999.25            :NULL VALUE
COMP            .                      YPF S.A.            :COMPANY
WELL            .                 YPF.SC.LC-941            :WELL NAME
FLD             .                 LOMAS DEL CUY            :FIELD NAME
RIGN            .                                          :Rig Name
RIGTYP          .                                          :Rig Type
SON             .                                          :Service Order Number
SRVC            .                  Schlumberger            :SERVICE COMPANY
DATE            .                    01/05/2017            :LOG DATE(Composite Date for Composite LAP) (MM/DD/YYYY)
CLAB            .                    Provincia:            :County Label
CNTY            .                    SANTA CRUZ            :COUNTY
SLAB            .                          UWI:            :State/Province Label
STAT            .                 No disponible            :STATE or PROVINCE
PROV            .                 No disponible            :STATE or PROVINCE
CTRY            .                     ARGENTINA            :COUNTRY
CONT_REGION     .                                          :Continent Region
SECT            .                       RIGLESS            :Section
TOWN            .                NT Ground Level G.L       :Township
RANG            .                M.R Drilling Floor D.F    :Range
API             .                                          :API NUMBER
UWI             .                                          :UNIQUE WELL ID
LUL             .                  CANADON SECO            :Logging Unit Location
LUN             .                          7008            :Logging Unit Number
LOC             .                          ARCS            :FIELD LOCATION
FL1             .                X: 4.856.702,40           :Field Location Line 1
FL2             .                Y: 2.494.852,45           :Field Location Line 2
LATI            .deg                 0° 0' 0" N            :LATITUDE
LONG            .deg                 0° 0' 0" E            :LONGITUDE
PDAT            .                            GL            :Local Permanent Datum
LMF             .                            GL            :Logging Measured From
APD             .m                      0.00000            :Elevation of Depth Reference (LMF) Above Permanent Datum
EPD             .m                    573.57000            :Elevation of Permanent Datum (PDAT) above Mean Sea Level
EKB             .m                      5.30000            :Elevation of Kelly Bushing Above Permanent Datum
EDF             .m                      5.30000            :Elevation of Drill Floor Above Permanent Datum
EGL             .m                      0.00000            :Elevation of Ground Level Above Permanent Datum
ECF             .m                      -999.25            :Elevation of Casing Flange above Permanent Datum
#--------------------------------------------------
~CURVE INFORMATION
#MNEM           .UNIT                  API CODE            :DESCRIPTION
#----            ------          --------------            -----------------------------
DEPT            .m                                         :                                                        Depth Index
CFTC            .1/s                                       :        (HGNS-H)                (6in)                   Corrected Far Thermal Count Rate
GR              .gAPI                                      :        (HGNS-H)                (6in)                   Gamma Ray
TNPH            .m3/m3                                     :        (HGNS-H)                (6in)                   Thermal Neutron Porosity (Ratio Method) in Selected Lithology
CBL             .mV                                        :        (ASLT-A)                (6in)                   CBL Amplitude
CBLF            .mV                                        :        (ASLT-A)                (6in)                   CBL Amplitude (Fluid Compensated)
TT              .us                                        :        (ASLT-A)                (6in)                   Transit Time for CBL
CCL             .                                          :        (CAL-YA)                (1in)                   Casing Collar Locator Amplitude
#-------------------------------------------------------------
#            DEPT         CFTC           GR         TNPH          CBL         CBLF           TT          CCL 
#                     (HGNS-H)     (HGNS-H)     (HGNS-H)     (ASLT-A)     (ASLT-A)     (ASLT-A)     (CAL-YA) 
#                                                                                                            
#                        (6in)        (6in)        (6in)        (6in)        (6in)        (6in)        (1in) 
~ASCII
# ...
        129.69240    245.95880     47.67151      0.63042     31.09654     24.87724    288.92820      0.00414
        129.84480    221.02220     46.38232      0.93049     45.88534     36.70827    279.88580      0.02489
        129.99720    209.16890     46.66440      1.09570     62.59803     50.07843    281.54570      0.02543
        130.14960    190.65280     44.40816      1.69206     67.64965     54.11972    281.44070     -0.00926
        130.30200    194.65980     40.70058      1.49350     64.66194     51.72955    281.42810      0.01174
        130.45440    196.40030     39.16938      1.39819     63.19302     50.55441    281.44880      0.02985
        130.60680    218.91840     41.34528      0.78024     62.91325     50.33060    281.44040      0.02035
        130.75920    221.33460     41.50631      0.77542     62.73161     50.18529    281.40260      0.01861
        130.91160    217.99420     38.80633      0.81388     62.34759     49.87807    281.43800      0.02248
        131.06400    223.07020     36.63024      0.76507     60.84120     48.67297    281.49490      0.01491
        131.21640    221.47160     40.41826      0.85811     57.95737     46.36590    281.17410     -0.01012
        131.36880    224.80150     44.40781      0.88116     55.88800     44.71040    281.22080     -0.01129
        131.52120    206.41800     46.58384      1.18971     53.72633     42.98107    280.90930      0.01059
        131.67360    208.03580     40.21692      1.19935     50.01465     40.01172    280.85510      0.01797
        131.82600    186.88180     35.66330      1.90252     46.76557     37.41246    280.96480      0.02329
        131.97840    196.17040     33.80966      1.34385     44.71442     35.77153    280.78050      0.01404
        132.13080    206.27490     35.66336      0.97404     44.19540     35.35632    280.68380      0.01445
        132.28320    207.99910     36.34836      0.98806     43.76496     35.01197    280.62890      0.01544
        132.43560    217.10440     38.60471      0.79939     40.33471     32.26777    280.48520      0.01343
        132.58800    221.46570     40.86164      0.80554     36.14909     28.91927    280.37990     -0.00083
        132.74040    242.72740     42.15123      0.60014     33.25554     26.60443    280.40040      0.02137
        132.89280    234.42490     43.72298      0.73445     30.35537     24.28429    280.22950      0.01322
        133.04520    225.46500     45.73782      0.84000     28.13511     22.50809    280.32390      0.01493
        133.19760    211.44890     45.45569      1.06995     26.85563     21.48450    280.14710      0.03491
        133.35000    203.18740     38.08141      1.22457     25.92697     20.74158    280.33010      0.00360
        133.50240    206.51490     31.83505      1.18934     25.47086     20.37668    280.36540     -0.00166
        133.65480    226.07430     33.08427      0.78776     25.06173     20.04938    280.25030      0.00789
        133.80720    223.89080     40.45864      0.80703     24.77299     19.81840    280.04290      0.01882
        133.95960    221.47790     42.83604      0.82656     24.95202     19.96161    279.98310      0.02253
        134.11200    197.90640     38.76609      1.22379     24.69510     19.75608    280.04440     -0.00292
        134.26440    212.03850     29.13507      0.92458     23.97138     19.17710    280.12450      0.00640
        134.41680    211.12040     26.75762      0.95409     24.25750     19.40600    279.95660      0.00931
        134.56920    232.03210     27.60396      0.69579     25.20747     20.16598    279.93920      0.01235
        134.72160    225.58850     35.54247      0.76241     25.93158     20.74527    280.13310      0.01406
        134.87400    224.89330     33.08424      0.75705     27.14262     21.71410    280.01100      0.01590
        135.02640    206.37640     32.76169      0.96731     28.74777     22.99822    280.05540      0.03161
        135.17880    189.01850     30.22323      1.35203     30.11728     24.09383    280.15220      0.01366
        135.33120    183.27240     34.41426      1.60579     31.18473     24.94778    280.06840      0.02573
        135.48360    183.29370     36.14700      1.81835     31.56412     25.25130    280.02350      0.02037
        135.63600    199.72330     34.61532      1.30032     31.26551     25.01241    280.15920      0.01572
        135.78840    209.49100     34.01092      1.04165     31.15029     24.92023    279.84470      0.01641
        135.94080    211.31020     31.95585      0.98092     31.22513     24.98011    279.97890      0.01346
        136.09320    217.41390     32.35900      0.73861     30.95485     24.76388    280.08520      0.02559
        136.24560    208.57830     30.70670      0.80753     31.23561     24.98849    280.14250      0.01181
        136.39800    219.61910     31.91560      0.67207     32.03809     25.63047    279.98700      0.01245
        136.55040    200.65020     30.54542      1.01637     32.15018     25.72015    280.00740      0.01461
        136.70280    205.26470     33.32597      0.92352     32.19608     25.75686    279.90770      0.01687
        136.85520    200.43750     31.47227      1.10280     31.46426     25.17141    279.86920      0.01286
        137.00760    217.91460     34.81697      0.81667     29.10010     23.28008    279.88290      0.01444
        137.16000    209.26800     33.97091      0.98091     27.41882     21.93505    279.85000      0.01499
        137.31240    204.90110     36.10661      1.04161     26.52503     21.22003    280.00890      0.02540
        137.46480    192.70900     32.43951      1.43357     25.45010     20.36008    280.09610      0.01729
        137.61720    190.30870     31.47230      1.48426     24.59156     19.67325    280.17730      0.00794
        137.76960    191.45660     29.21569      1.27802     23.19565     18.55652    280.28310      0.02609
        137.92200    204.57010     29.53815      0.93431     21.63586     17.30869    280.30400      0.00586
        138.07440    200.53430     31.35145      1.05066     20.61556     16.49245    280.44790      0.01667
        138.22680    192.02500     32.43950      1.21372     19.97982     15.98386    280.30660      0.01585
        138.37920    182.93220     31.83501      1.67479     20.02005     16.01604    280.30250      0.01882
        138.53160    205.35390     28.73210      1.24044     20.24147     16.19317    280.26430      0.02039
        138.68400    207.42150     25.66947      1.26066     20.90353     16.72283    280.48340      0.01434
        138.83640    231.23410     23.69487      0.98137     24.21982     19.37585    280.63650      0.01801
        138.98880    250.68380     22.56651      0.85367     29.32491     23.45993    280.82370      0.03573
        139.14120    269.76960     23.05005      0.63161     33.18283     26.54627    280.65920      0.01582
        139.29360    280.61010     24.74249      0.52848     36.00935     28.80748    280.68410      0.01251
        139.44600    274.95770     28.77253      0.55849     39.59098     31.67278    280.74260      0.01311
        139.59840    276.80040     30.70685      0.53054     46.04501     36.83601    280.77660      0.01375
        139.75080    272.76470     33.80979      0.55732     53.23914     42.59132    280.41640      0.02226
        139.90320    292.10510     30.62606      0.49676     56.53693     45.22955    280.64540      0.02335
        140.05560    327.57060     30.62610      0.42245     57.35456     45.88365    280.64760      0.00722
        140.20800    325.39070     27.80515      0.41681     57.47447     45.97958    280.76090      0.01595
        140.36040    290.75890     30.66615      0.48014     56.11320     44.89056    280.66780      0.00444
        140.51280    260.81570     29.69905      0.57297     53.93495     43.14796    280.48790      0.02858
        140.66520    248.47900     30.82742      0.67774     51.14881     40.91905    280.34160      0.04628
        140.81760    245.37580     29.53818      0.68108     46.55915     37.24732    280.46340      0.03714
