~VERSION INFORMATION 
VERS  .    2.0                                     :CWLS Log ASCII Standard - VERSION 2.0
WRAP  .    NO                                      :One Line per Depth step
PROD  .    Schlumberger Technology Corp.           :LAS Producer
PROG  .    Horizon LASWriter 6.2.64464.3100        :LAS Program name and version
SOURCE.    1-Log[5]/Up                             :Run&Pass Information
CREA  .    01/05/2017                              :LAS Creation date {MM/DD/YYYY}
#--------------------------------------------------
~WELL INFORMATION 
#MNEM           .UNIT                      DATA            :DESCRIPTION
#----            ------          --------------            -----------------------------
STRT            .m                     16.91640            :START DEPTH
STOP            .m                   1777.89840            :STOP DEPTH
STEP            .m                       0.1524            :STEP
NULL            .                       -999.25            :NULL VALUE
COMP            .                      YPF S.A.            :COMPANY
WELL            .                 YPF.SC.LC-941            :WELL NAME
FLD             .                 LOMAS DEL CUY            :FIELD NAME
RIGN            .                                          :Rig Name
RIGTYP          .                                          :Rig Type
SON             .                                          :Service Order Number
SRVC            .                  Schlumberger            :SERVICE COMPANY
DATE            .                    01/05/2017            :LOG DATE(Composite Date for Composite LAP) (MM/DD/YYYY)
CLAB            .                    Provincia:            :County Label
CNTY            .                    SANTA CRUZ            :COUNTY
SLAB            .                          UWI:            :State/Province Label
STAT            .                 No disponible            :STATE or PROVINCE
PROV            .                 No disponible            :STATE or PROVINCE
CTRY            .                     ARGENTINA            :COUNTRY
CONT_REGION     .                                          :Continent Region
SECT            .                       RIGLESS            :Section
TOWN            .                NT Ground Level G.L       :Township
RANG            .                M.R Drilling Floor D.F    :Range
API             .                                          :API NUMBER
UWI             .                                          :UNIQUE WELL ID
LUL             .                  CANADON SECO            :Logging Unit Location
LUN             .                          7008            :Logging Unit Number
LOC             .                          ARCS            :FIELD LOCATION
FL1             .                X: 4.856.702,40           :Field Location Line 1
FL2             .                Y: 2.494.852,45           :Field Location Line 2
LATI            .deg                 0° 0' 0" N            :LATITUDE
LONG            .deg                 0° 0' 0" E            :LONGITUDE
PDAT            .                            GL            :Local Permanent Datum
LMF             .                            GL            :Logging Measured From
APD             .m                      0.00000            :Elevation of Depth Reference (LMF) Above Permanent Datum
EPD             .m                    573.57000            :Elevation of Permanent Datum (PDAT) above Mean Sea Level
EKB             .m                      5.30000            :Elevation of Kelly Bushing Above Permanent Datum
EDF             .m                      5.30000            :Elevation of Drill Floor Above Permanent Datum
EGL             .m                      0.00000            :Elevation of Ground Level Above Permanent Datum
ECF             .m                      -999.25            :Elevation of Casing Flange above Permanent Datum
#--------------------------------------------------
~CURVE INFORMATION
#MNEM           .UNIT                  API CODE            :DESCRIPTION
#----            ------          --------------            -----------------------------
DEPT            .m                                         :                                                        Depth Index
CFTC            .1/s                                       :        (HGNS-H)                (6in)                   Corrected Far Thermal Count Rate
GR              .gAPI                                      :        (HGNS-H)                (6in)                   Gamma Ray
TNPH            .m3/m3                                     :        (HGNS-H)                (6in)                   Thermal Neutron Porosity (Ratio Method) in Selected Lithology
CBL             .mV                                        :        (ASLT-A)                (6in)                   CBL Amplitude
CBLF            .mV                                        :        (ASLT-A)                (6in)                   CBL Amplitude (Fluid Compensated)
TT              .us                                        :        (ASLT-A)                (6in)                   Transit Time for CBL
CCL             .                                          :        (CAL-YA)                (1in)                   Casing Collar Locator Amplitude
#-------------------------------------------------------------
#            DEPT         CFTC           GR         TNPH          CBL         CBLF           TT          CCL 
#                     (HGNS-H)     (HGNS-H)     (HGNS-H)     (ASLT-A)     (ASLT-A)     (ASLT-A)     (CAL-YA) 
#                                                                                                            
#                        (6in)        (6in)        (6in)        (6in)        (6in)        (6in)        (1in) 
~ASCII
# ...
        828.90360    367.06970     69.48878      0.47587     54.14505     43.31604    281.17370      0.03690
        829.05600    371.95380     67.27551      0.46929     57.08332     45.66666    281.25080      0.01658
        829.20840    399.42260     68.01340      0.43854     58.62088     46.89671    281.38350     -0.01307
        829.36080    413.15440     73.28722      0.42529     56.67937     45.34350    281.40400      0.02975
        829.51320    441.41380     72.30326      0.39122     52.17990     41.74392    281.15430      0.02007
        829.66560    447.86970     74.76263      0.39519     47.66805     38.13445    280.83300      0.03425
        829.81800    440.60740     73.53318      0.40128     43.50525     34.80420    280.54830      0.02052
        829.97040    430.89220     74.27118      0.40715     40.26974     32.21580    280.52770      0.02271
        830.12280    413.92830     73.42395      0.43947     39.27867     31.42294    280.45300      0.01687
        830.27520    408.25430     77.11296      0.45458     40.63041     32.50433    280.55210      0.01126
        830.42760    426.87590     77.85096      0.42055     42.46857     33.97486    280.53810     -0.00030
        830.58000    447.88880     75.50129      0.39893     43.41827     34.73462    280.71620      0.02596
        830.73240    461.62730     68.36911      0.38579     44.18093     35.34474    280.72980      0.02063
        830.88480    451.98380     67.87699      0.39467     45.14184     36.11348    280.63190      0.00819
        831.03720    457.64270     66.40115      0.39789     46.27053     37.01643    280.75780      0.01940
        831.18960    458.45460     72.54959      0.40428     46.20795     36.96636    280.82760      0.02810
        831.34200    473.74410     73.28751      0.39032     44.64780     35.71824    280.62040      0.01868
        831.49440    481.05180     72.74083      0.38510     44.34473     35.47579    280.72430      0.02501
        831.64680    480.25970     67.57614      0.38117     45.20380     36.16304    280.93860      0.02597
        831.79920    466.52090     66.83826      0.38954     44.72884     35.78307    280.91300      0.01111
        831.95160    455.99940     66.40113      0.40247     43.16066     34.52853    280.52030      0.03521
        832.10400    455.96140     63.69603      0.39522     41.74870     33.39896    280.45270      0.01457
        832.25640    432.52950     61.72865      0.42062     40.27303     32.21843    280.37610      0.00819
        832.40880    408.54720     60.49896      0.45175     38.18904     30.55124    280.22050      0.02641
        832.56120    402.11990     64.67978      0.46478     35.50991     28.40792    280.15530      0.02174
        832.71360    405.34970     68.94247      0.45662     33.42734     26.74187    280.08190      0.02731
        832.86600    407.49310     73.61518      0.45113     33.45126     26.76101    280.13000      0.02333
        833.01840    426.06590     76.56621      0.42488     35.21533     28.17227    280.44350      0.02955
        833.17080    447.07390     76.73054      0.40343     37.37549     29.90039    280.51880      0.01504
        833.32320    445.45940     69.84433      0.40425     38.42669     30.74135    280.60640      0.01816
        833.47560    426.89070     64.18792      0.42407     37.68437     30.14750    280.52080      0.02818
        833.62800    400.12820     59.26894      0.45947     36.35392     29.08314    280.56040      0.01657
        833.78040    404.97840     62.49361      0.45665     34.71153     27.76923    280.38920     -0.00319
        833.93280    411.42960     66.60418      0.44621     33.17082     26.53666    280.43130      0.00960
        834.08520    413.94350     70.48458      0.44447     32.22670     25.78136    280.33390      0.01962
        834.23760    409.88460     73.40831      0.45507     30.44473     24.35578    280.01430      0.01691
        834.39000    384.83510     74.46215      0.51421     27.94437     22.35549    280.07570      0.02483
        834.54240    376.76620     73.28688      0.51695     26.22309     20.97847    279.92590      0.02522
        834.69480    381.62340     68.61421      0.49494     24.86288     19.89031    280.03460      0.02050
        834.84720    391.93520     65.41756      0.45575     23.52992     18.82394    279.84950      0.03006
        834.99960    391.92750     69.35259      0.44587     23.48390     18.78712    279.51270      0.03443
        835.15200    377.39970     77.22223      0.45969     25.51466     20.41173    279.65810      0.02039
        835.30440    373.53790     73.04106      0.45666     28.75309     23.00247    279.93160      0.02733
        835.45680    396.99330     74.21589      0.41500     30.96465     24.77172    279.98950      0.01187
        835.60920    380.03690     68.06792      0.45006     31.58145     25.26516    280.26330      0.03046
        835.76160    362.28780     75.69182      0.49209     31.73491     25.38792    280.23650      0.01356
        835.91400    350.14760     69.59818      0.50993     31.80636     25.44509    280.19000      0.02260
        836.06640    364.67500     79.43552      0.49762     31.28023     25.02418    280.33700     -0.01221
        836.21880    397.77200     76.73034      0.45063     29.63131     23.70505    280.06640      0.02590
        836.37120    380.80900     81.15736      0.47338     27.72711     22.18169    280.00410      0.04349
        836.52360    396.97150     71.81165      0.44406     26.71810     21.37448    279.88540      0.03291
        836.67600    378.42100     71.56565      0.47500     26.58207     21.26565    279.91810      0.02187
        836.82840    394.58170     65.14394      0.45081     27.03586     21.62869    279.68790      0.01573
        836.98080    393.75850     66.61971      0.45184     28.86732     23.09386    279.90750     -0.00470
        837.13320    409.08050     63.66885      0.44358     32.41655     25.93324    280.29430      0.01198
        837.28560    421.99040     68.12295      0.42455     37.97273     30.37819    280.38750      0.01806
        837.43800    454.78860     67.13892      0.40054     38.92712     31.14170    280.60360      0.02360
        837.59040    488.74530     69.10605      0.36313     31.72479     25.37984    280.31060      0.02383
        837.74280    474.99870     63.94162      0.38376     28.42729     22.74183    284.61630      0.02563
        837.89520    485.91370     65.41727      0.36310     30.65399     24.52319    284.91230      0.06876
        838.04760    472.98350     65.55390      0.38864     32.16457     25.73166    284.87490     -2.93148
        838.20000    492.38420     73.17762      0.36701     32.83357     26.26686    285.26150      0.02252
        838.35240    486.71320     71.45634      0.38269     34.48284     27.58628    284.58910      0.04997
        838.50480    508.58690     67.63083      0.36508     41.97442     33.57954    282.53490      0.01801
        838.65720    532.86620     59.02325      0.35454     51.06650     40.85320    280.59760     -0.01507
        838.80960    499.66670     56.31795      0.38581     53.53009     42.82407    280.42320      0.02472
        838.96200    481.56050     60.00688      0.40410     52.08626     41.66901    280.57030      0.02624
        839.11440    463.77320     65.17157      0.41986     51.21514     40.97211    280.51770      0.03554
        839.26680    481.58230     67.60363      0.39091     50.60092     40.48074    280.52150     -0.01983
        839.41920    480.22340     66.61983      0.39006     50.16673     40.13339    280.55710     -0.03579
        839.57160    493.97490     63.91461      0.37013     50.55407     40.44325    280.55830      0.02684
        839.72400    506.89270     62.95795      0.35373     51.75025     41.40020    280.58170      0.04694
        839.87640    493.97230     64.18772      0.36644     53.15779     42.52624    280.73720      0.03200
        840.02880    491.55450     61.48249      0.37525     54.04867     43.23894    280.74590     -0.00912
