~VERSION INFORMATION 
VERS  .    2.0                                     :CWLS Log ASCII Standard - VERSION 2.0
WRAP  .    NO                                      :One Line per Depth step
PROD  .    Schlumberger Technology Corp.           :LAS Producer
PROG  .    Horizon LASWriter 8.0.95333.3100        :LAS Program name and version
SOURCE.    CARRERA_02: CBL-VDL-NL-GR-Log[4]/Up     :Run&Pass Information
CREA  .    06/11/2018                              :LAS Creation date {MM/DD/YYYY}
#--------------------------------------------------
~WELL INFORMATION 
#MNEM           .UNIT                      DATA            :DESCRIPTION
#----            ------          --------------            -----------------------------
STRT            .m                    454.91400            :START DEPTH
STOP            .m                   2158.89840            :STOP DEPTH
STEP            .m                       0.1524            :STEP
NULL            .                       -999.25            :NULL VALUE
COMP            .                       YPF S.A            :COMPANY
WELL            .                YPF.SC.ECH-212            :WELL NAME
FLD             .                ESTANCIA CHOLITA          :FIELD NAME
RIGN            .                                          :Rig Name
RIGTYP          .                                          :Rig Type
SON             .                 TICKET NUMBER            :Service Order Number
SRVC            .                  Schlumberger            :SERVICE COMPANY
DATE            .                    06/08/2018            :LOG DATE(Composite Date for Composite LAP) (MM/DD/YYYY)
CLAB            .                       County:            :County Label
CNTY            .                    SANTA CRUZ            :COUNTY
SLAB            .                          UWI:            :State/Province Label
STAT            .                AR030000968000            :STATE or PROVINCE
PROV            .                AR030000968000            :STATE or PROVINCE
CTRY            .                     ARGENTINA            :COUNTRY
CONT_REGION     .                                          :Continent Region
SECT            .                       Rigless            :Section
TOWN            .                    4856781.85            :Township
RANG            .                    2459103.27            :Range
API             .                                          :API NUMBER
UWI             .                                          :UNIQUE WELL ID
LUL             .                          ARCS            :Logging Unit Location
LUN             .                          7062            :Logging Unit Number
LOC             .                          ARCS            :FIELD LOCATION
FL1             .                                          :Field Location Line 1
FL2             .                                          :Field Location Line 2
LATI            .deg                 -48.567818            :LATITUDE
LONG            .deg                  24.591030            :LONGITUDE
PDAT            .                            GL            :Local Permanent Datum
LMF             .                            GL            :Logging Measured From
APD             .m                      0.00000            :Elevation of Depth Reference (LMF) Above Permanent Datum
EPD             .m                    554.51000            :Elevation of Permanent Datum (PDAT) above Mean Sea Level
EKB             .m                      0.00000            :Elevation of Kelly Bushing Above Permanent Datum
EDF             .m                      0.00000            :Elevation of Drill Floor Above Permanent Datum
EGL             .m                      0.00000            :Elevation of Ground Level Above Permanent Datum
ECF             .m                      -999.25            :Elevation of Casing Flange above Permanent Datum
#--------------------------------------------------
~CURVE INFORMATION
#MNEM           .UNIT                  API CODE            :DESCRIPTION
#----            ------          --------------            -----------------------------
DEPT            .m                                         :                                                        Depth Index
CBLF            .mV                                        :        (DSLT-H)                (6in)                   CBL Amplitude (Fluid Compensated)
TT              .us                                        :        (DSLT-H)                (6in)                   Transit Time for CBL
CTEM            .degC                                      :        (HGNS-H)                (6in)                   Cartridge Temperature
CFTC            .1/s                                       :        (HGNS-H)                (2in)                   Corrected Far Thermal Count Rate
CCL             .                                          :        (CAL-YA)                (1in)                   Casing Collar Locator Amplitude
TENS            .lbf                                       :        (WLWorkflow)            (6in)                   Cable Tension
DEPTH           .m                                         :        (WLWorkflow)            (6in)                   Depth Index
SDEV            .deg                                       :        (HGNS-H)                (6in)                   Sonde Deviation
TNPH            .V/V                                       :        (HGNS-H)                (6in)                   Thermal Neutron Porosity (Ratio Method) in Selected Lithology
GR              .gAPI                                      :        (HGNS-H)                (6in)                   Gamma Ray
#-------------------------------------------------------------
#            DEPT         CBLF           TT         CTEM         CFTC          CCL         TENS        DEPTH         SDEV         TNPH           GR 
#                     (DSLT-H)     (DSLT-H)     (HGNS-H)     (HGNS-H)     (CAL-YA)  (WLWorkflo)  (WLWorkflo)     (HGNS-H)     (HGNS-H)     (HGNS-H) 
#                                                                                                                                                   
#                        (6in)        (6in)        (6in)        (2in)        (1in)        (6in)        (6in)        (6in)        (6in)        (6in) 
~ASCII
# ...
       2148.07800      3.99975    272.39750    109.50230   1231.73400      -999.25   2652.57243   2148.07385      -999.25      0.18708    136.55450
       2148.23040      4.03473    272.30510    109.50230   1215.08100      -999.25   2665.24940   2148.22992      -999.25      0.19201    144.59850
       2148.38280      4.05366    272.93200    109.50230   1219.47900      -999.25   2679.00097   2148.38010      -999.25      0.19607    143.17310
       2148.53520      4.05278    272.44680    109.50230   1313.24700      -999.25   2683.62529   2148.53663      -999.25      0.17998    143.11100
       2148.68760      4.04979    272.82500    109.50230   1410.36400      -999.25   2668.71371   2148.69288      -999.25      0.16701    142.80140
       2148.84000      4.09524    272.37270    109.50230   1492.88100      -999.25   2643.85658   2148.84093      -999.25      0.15529    144.78480
       2148.99240      4.18367    272.55260    109.50230   1505.78600      -999.25   2619.24900   2148.99415      -999.25      0.15286    147.14350
       2149.14480      4.26176    271.97650    109.50230   1433.77100      -999.25   2638.28582   2149.15081      -999.25      0.16361    143.83910
       2149.29720      4.29182    272.15320    109.50230   1348.89300      -999.25   2652.85793   2149.29450      -999.25      0.17743    140.18220
       2149.44960      4.26462    271.69090    109.50230   1268.36100      -999.25   2692.50074   2149.45135      -999.25      0.19112    136.27390
       2149.60200      4.14558    272.89040    109.50230   1257.21700      -999.25   2687.42905   2149.60438      -999.25      0.19223    136.29120
       2149.75440      3.99132    273.01030      -999.25   1275.99900      -999.25   2663.74993   2149.75678      -999.25      0.18803    142.89780
       2149.90680      3.90695    272.75930      -999.25   1330.11700      -999.25   2647.57043   2149.90809      -999.25      0.17799      -999.25
       2150.05920      3.86527    272.66440      -999.25   1402.33800      -999.25   2627.29940   2150.06056      -999.25      0.16333      -999.25
       2150.21160      3.86778    272.69700      -999.25   1439.16800      -999.25   2646.66669   2150.21200      -999.25      0.15764      -999.25
       2150.36400      3.87068    272.61730      -999.25   1439.80000      -999.25   2666.00026   2150.36308      -999.25      0.15659      -999.25
       2150.51640      3.82970    273.28230      -999.25   1377.43200      -999.25   2672.29941   2150.52081      -999.25      0.16268      -999.25
       2150.66880      3.79242    272.91290      -999.25   1290.28200      -999.25   2647.30066   2150.67601      -999.25      0.17400      -999.25
       2150.82120      3.73472    273.40090      -999.25   1197.70100      -999.25   2635.18121   2150.82427      -999.25      0.18729      -999.25
       2150.97360      3.68598    273.84440      -999.25   1158.45100      -999.25   2627.76925   2150.97324      -999.25      0.18743      -999.25
       2151.12600      3.65308    274.38080      -999.25   1131.87600      -999.25   2653.41771   2151.12669      -999.25      0.18617      -999.25
       2151.27840      3.61571    274.17730      -999.25   1147.70100      -999.25   2642.66734   2151.27443      -999.25      0.18047      -999.25
       2151.43080      3.60368    274.37660      -999.25   1153.23100      -999.25   2630.53890   2151.42830      -999.25      0.17943      -999.25
       2151.58320      3.65972    275.34100      -999.25   1193.52400      -999.25   2651.33373   2151.58219      -999.25      0.17091      -999.25
       2151.73560      3.58760    278.67610      -999.25      -999.25      -999.25   2643.69247   2151.73661      -999.25      -999.25      -999.25
       2151.88800      3.43783    278.77650      -999.25      -999.25      -999.25   2639.83250   2151.89038      -999.25      -999.25      -999.25
       2152.04040      3.51470    279.79970      -999.25      -999.25      -999.25   2639.16707   2152.03834      -999.25      -999.25      -999.25
       2152.19280      3.42211    278.99430      -999.25      -999.25      -999.25   2643.23161   2152.19244      -999.25      -999.25      -999.25
       2152.34520      3.22251    279.45070      -999.25      -999.25      -999.25   2642.16602   2152.34504      -999.25      -999.25      -999.25
       2152.49760      3.50097    280.59610      -999.25      -999.25      -999.25   2651.07745   2152.49783      -999.25      -999.25      -999.25
       2152.65000      4.00363    283.84450      -999.25      -999.25      -999.25   2642.41556   2152.65153      -999.25      -999.25      -999.25
       2152.80240      4.14789    277.45730      -999.25      -999.25      -999.25   2624.23076   2152.80419      -999.25      -999.25      -999.25
       2152.95480      3.97207    272.46830      -999.25      -999.25      -999.25   2621.66569   2152.95760      -999.25      -999.25      -999.25
       2153.10720      3.85562    274.91710      -999.25      -999.25      -999.25   2631.07619   2153.11134      -999.25      -999.25      -999.25
       2153.25960      4.10876    272.65740      -999.25      -999.25      -999.25   2668.50014   2153.26537      -999.25      -999.25      -999.25
       2153.41200      4.83695    272.50300      -999.25      -999.25      -999.25   2626.33273   2153.41226      -999.25      -999.25      -999.25
       2153.56440      5.45747    271.88000      -999.25      -999.25      -999.25   2595.84639   2153.56444      -999.25      -999.25      -999.25
       2153.71680      5.56902    271.39730      -999.25      -999.25      -999.25   2625.91683   2153.71728      -999.25      -999.25      -999.25
       2153.86920      5.42446    271.38030      -999.25      -999.25      -999.25   2636.24905   2153.86565      -999.25      -999.25      -999.25
       2154.02160      5.07519    272.10950      -999.25      -999.25      -999.25   2647.30740   2154.02164      -999.25      -999.25      -999.25
       2154.17400      4.64698    272.65260      -999.25      -999.25      -999.25   2630.33433   2154.17448      -999.25      -999.25      -999.25
       2154.32640      4.60056    272.99620      -999.25      -999.25      -999.25   2599.84574   2154.32800      -999.25      -999.25      -999.25
       2154.47880      4.99062    272.26370      -999.25      -999.25      -999.25   2616.00051   2154.48097      -999.25      -999.25      -999.25
       2154.63120      5.53770    271.55750      -999.25      -999.25      -999.25   2642.46052   2154.63163      -999.25      -999.25      -999.25
       2154.78360      6.18878    271.47630      -999.25      -999.25      -999.25   2636.92348   2154.78774      -999.25      -999.25      -999.25
       2154.93600      7.18248    271.15560      -999.25      -999.25      -999.25   2612.28666   2154.93874      -999.25      -999.25      -999.25
       2155.08840      8.29210    271.09560      -999.25      -999.25      -999.25   2597.06710   2155.09213      -999.25      -999.25      -999.25
       2155.24080      8.64193    270.84330      -999.25      -999.25      -999.25   2603.68772   2155.24429      -999.25      -999.25      -999.25
       2155.39320      8.28993    271.02890      -999.25      -999.25      -999.25   2593.26558   2155.39456      -999.25      -999.25      -999.25
       2155.54560      7.91343    271.47720      -999.25      -999.25      -999.25   2627.64786   2155.54559      -999.25      -999.25      -999.25
       2155.69800      7.66952    271.86330      -999.25      -999.25      -999.25   2616.88850   2155.69953      -999.25      -999.25      -999.25
       2155.85040      7.57311    271.90700      -999.25      -999.25      -999.25   2595.14273   2155.85496      -999.25      -999.25      -999.25
       2156.00280      7.56179    271.83830      -999.25      -999.25      -999.25   2611.45487   2156.00599      -999.25      -999.25      -999.25
       2156.15520      7.55513    271.70540      -999.25      -999.25      -999.25   2600.86862   2156.15559      -999.25      -999.25      -999.25
       2156.30760      -999.25      -999.25      -999.25      -999.25      -999.25   2599.04092   2156.30744      -999.25      -999.25      -999.25
