~VERSION INFORMATION 
VERS  .    2.0                                     :CWLS Log ASCII Standard - VERSION 2.0
WRAP  .    NO                                      :One Line per Depth step
PROD  .    Schlumberger Technology Corp.           :LAS Producer
PROG  .    Horizon LASWriter 8.0.95333.3100        :LAS Program name and version
SOURCE.    CARRERA_02: CBL-VDL-NL-GR-Log[4]/Up     :Run&Pass Information
CREA  .    06/11/2018                              :LAS Creation date {MM/DD/YYYY}
#--------------------------------------------------
~WELL INFORMATION 
#MNEM           .UNIT                      DATA            :DESCRIPTION
#----            ------          --------------            -----------------------------
STRT            .m                    454.91400            :START DEPTH
STOP            .m                   2158.89840            :STOP DEPTH
STEP            .m                       0.1524            :STEP
NULL            .                       -999.25            :NULL VALUE
COMP            .                       YPF S.A            :COMPANY
WELL            .                YPF.SC.ECH-212            :WELL NAME
FLD             .                ESTANCIA CHOLITA          :FIELD NAME
RIGN            .                                          :Rig Name
RIGTYP          .                                          :Rig Type
SON             .                 TICKET NUMBER            :Service Order Number
SRVC            .                  Schlumberger            :SERVICE COMPANY
DATE            .                    06/08/2018            :LOG DATE(Composite Date for Composite LAP) (MM/DD/YYYY)
CLAB            .                       County:            :County Label
CNTY            .                    SANTA CRUZ            :COUNTY
SLAB            .                          UWI:            :State/Province Label
STAT            .                AR030000968000            :STATE or PROVINCE
PROV            .                AR030000968000            :STATE or PROVINCE
CTRY            .                     ARGENTINA            :COUNTRY
CONT_REGION     .                                          :Continent Region
SECT            .                       Rigless            :Section
TOWN            .                    4856781.85            :Township
RANG            .                    2459103.27            :Range
API             .                                          :API NUMBER
UWI             .                                          :UNIQUE WELL ID
LUL             .                          ARCS            :Logging Unit Location
LUN             .                          7062            :Logging Unit Number
LOC             .                          ARCS            :FIELD LOCATION
FL1             .                                          :Field Location Line 1
FL2             .                                          :Field Location Line 2
LATI            .deg                 -48.567818            :LATITUDE
LONG            .deg                  24.591030            :LONGITUDE
PDAT            .                            GL            :Local Permanent Datum
LMF             .                            GL            :Logging Measured From
APD             .m                      0.00000            :Elevation of Depth Reference (LMF) Above Permanent Datum
EPD             .m                    554.51000            :Elevation of Permanent Datum (PDAT) above Mean Sea Level
EKB             .m                      0.00000            :Elevation of Kelly Bushing Above Permanent Datum
EDF             .m                      0.00000            :Elevation of Drill Floor Above Permanent Datum
EGL             .m                      0.00000            :Elevation of Ground Level Above Permanent Datum
ECF             .m                      -999.25            :Elevation of Casing Flange above Permanent Datum
#--------------------------------------------------
~CURVE INFORMATION
#MNEM           .UNIT                  API CODE            :DESCRIPTION
#----            ------          --------------            -----------------------------
DEPT            .m                                         :                                                        Depth Index
CBLF            .mV                                        :        (DSLT-H)                (6in)                   CBL Amplitude (Fluid Compensated)
TT              .us                                        :        (DSLT-H)                (6in)                   Transit Time for CBL
CTEM            .degC                                      :        (HGNS-H)                (6in)                   Cartridge Temperature
CFTC            .1/s                                       :        (HGNS-H)                (2in)                   Corrected Far Thermal Count Rate
CCL             .                                          :        (CAL-YA)                (1in)                   Casing Collar Locator Amplitude
TENS            .lbf                                       :        (WLWorkflow)            (6in)                   Cable Tension
DEPTH           .m                                         :        (WLWorkflow)            (6in)                   Depth Index
SDEV            .deg                                       :        (HGNS-H)                (6in)                   Sonde Deviation
TNPH            .V/V                                       :        (HGNS-H)                (6in)                   Thermal Neutron Porosity (Ratio Method) in Selected Lithology
GR              .gAPI                                      :        (HGNS-H)                (6in)                   Gamma Ray
#-------------------------------------------------------------
#            DEPT         CBLF           TT         CTEM         CFTC          CCL         TENS        DEPTH         SDEV         TNPH           GR 
#                     (DSLT-H)     (DSLT-H)     (HGNS-H)     (HGNS-H)     (CAL-YA)  (WLWorkflo)  (WLWorkflo)     (HGNS-H)     (HGNS-H)     (HGNS-H) 
#                                                                                                                                                   
#                        (6in)        (6in)        (6in)        (2in)        (1in)        (6in)        (6in)        (6in)        (6in)        (6in) 
~ASCII
# ...
       1016.50800      2.94508    273.17300     68.39872    436.21390     -0.03030   1394.49999   1016.51006      -999.25      0.40327     55.57933
       1016.66040      2.65301    274.12170     68.39872    439.64900      0.09977   1404.37495   1016.65929      -999.25      0.41878     61.34534
       1016.81280      2.58254    273.00200     68.39872    466.37190      0.05264   1402.00007   1016.80851      -999.25      0.39164     63.45235
       1016.96520      2.63804    273.23900     68.39872    473.99230      0.13464   1391.22228   1016.96730      -999.25      0.39263     67.40347
       1017.11760      2.71929    273.04440     68.39872    466.36090      0.20053   1384.87502   1017.12601      -999.25      0.39905     66.90591
       1017.27000      2.79840    273.34210     68.39872    444.21140      0.04101   1399.99994   1017.27587      -999.25      0.42620     72.14484
       1017.42240      3.06895    274.20950     68.39872    451.10300     -0.09360   1394.00002   1017.42478      -999.25      0.39795     67.66728
       1017.57480      3.65182    271.33020     68.39872    442.72190      0.15477   1387.00014   1017.57750      -999.25      0.40284     66.08635
       1017.72720      4.22484    270.66400     68.39872    455.69870     -0.06438   1382.62513   1017.73307      -999.25      0.37613     60.58410
       1017.87960      4.60984    270.19240     68.39872    447.28060      0.04948   1389.87500   1017.88643      -999.25      0.39623     68.74943
       1018.03200      4.65208    269.07910     68.39872    459.49190      0.12611   1411.62504   1018.03787      -999.25      0.38071     75.04233
       1018.18440      4.20842    270.31620     68.39872    459.86370      0.14020   1397.37507   1018.18869      -999.25      0.38206     77.41310
       1018.33680      3.53377    271.88940     68.67834    461.01690      0.04191   1391.75013   1018.33918      -999.25      0.38214     73.72579
       1018.48920      3.15001    273.78640     68.67834    485.07990     -0.02204   1406.00009   1018.49031      -999.25      0.36646     68.10632
       1018.64160      3.18970    273.29990     68.67834    489.66860      0.03541   1401.25010   1018.64144      -999.25      0.35079     66.26237
       1018.79400      3.13908    272.09510     68.67834    484.75740      0.06569   1383.00011   1018.79511      -999.25      0.34592     63.10126
       1018.94640      2.95853    272.67220     68.67834    474.04690      0.11507   1404.49994   1018.95291      -999.25      0.35522     60.84789
       1019.09880      2.91584    272.29610     68.67834    467.15250      0.09140   1418.87490   1019.10467      -999.25      0.36030     60.43807
       1019.25120      2.92643    272.45730     68.67834    481.99460     -0.01201   1387.12491   1019.25644      -999.25      0.35630     60.43810
       1019.40360      2.89503    272.57540     68.67834    457.19230     -0.05822   1372.87494   1019.41106      -999.25      0.38516     60.96473
       1019.55600      2.78611    273.59050     68.67834    462.54120      0.09238   1407.25003   1019.56410      -999.25      0.37202     64.24290
       1019.70840      2.60792    272.28970     68.67834    471.70190      0.10552   1415.87505   1019.71586      -999.25      0.36748     67.14009
       1019.86080      2.32699    273.77070     68.67834    492.29970      0.10127   1378.12513   1019.86445      -999.25      0.34978     74.77906
       1020.01320      2.19503    275.52580     68.67834    505.28460     -0.00393   1369.37512   1020.01272      -999.25      0.33651     74.28136
       1020.16560      2.35743    273.66510     68.67834    497.65160      0.11968   1403.25000   1020.15909      -999.25      0.35648     72.17404
       1020.31800      2.43031    274.14280     68.67834    503.37870      0.05136   1406.44454   1020.31925      -999.25      0.36027     67.90115
       1020.47040      2.39575    274.14570     68.67834    492.72590     -0.03828   1375.00006   1020.47913      -999.25      0.37064     70.79848
       1020.62280      2.47075    273.96910     68.67834    490.04540      0.02286   1385.99996   1020.62867      -999.25      0.37650     70.27200
       1020.77520      2.60261    273.05750     68.67834    449.26390      0.07782   1419.62509   1020.78012      -999.25      0.42308     70.97424
       1020.92760      2.58793    272.13120     68.67834    406.52390      0.12329   1405.24990   1020.92966      -999.25      0.49131     72.02818
       1021.08000      2.46172    274.21140     68.67834    436.34900      0.16385   1381.62496   1021.07794      -999.25      0.44829     74.39870
       1021.23240      2.49473    273.02850     68.67834    482.13790      0.04087   1384.00006   1021.23506      -999.25      0.38571     77.91058
       1021.38480      2.57216    272.94270     68.67834    548.54130      0.08832   1405.37490   1021.39448      -999.25      0.32643     75.53978
       1021.53720      2.50583    272.80760     68.67834    556.94690      0.08311   1394.00002   1021.54466      -999.25      0.32413     75.53986
       1021.68960      2.40090    273.33030     68.67834    577.21170      0.19945   1373.99989   1021.69357      -999.25      0.31746     72.43765
       1021.84200      2.35511    272.81440     68.67834    594.79820      0.06855   1395.49994   1021.84184      -999.25      0.31324     70.41802
       1021.99440      2.29269    273.27660     68.67834    589.05760      0.18308   1411.62504   1021.99043      -999.25      0.31800     69.62774
       1022.14680      2.24248    273.97770     68.67834    619.27770      0.17522   1392.44456   1022.14551      -999.25      0.29464     65.00351
       1022.29920      2.29332    272.66950     68.67834    630.77620      0.11088   1388.25008   1022.30222      -999.25      0.29535     61.75498
       1022.45160      2.41523    273.95410     68.67834    666.76250     -0.00352   1407.00004   1022.44985      -999.25      0.27456     58.56478
       1022.60400      2.60159    272.69210     68.67834    621.61650     -0.06990   1416.99999   1022.59908      -999.25      0.29708     61.34545
       1022.75640      2.64882    271.69380     68.67834    574.20430      0.19254   1397.88899   1022.75878      -999.25      0.32359     68.80875
       1022.90880      2.49006    273.43200     68.67834    477.12760      0.19013   1391.12493   1022.91721      -999.25      0.41154     74.89626
       1023.06120      2.50018    272.88660     68.67834    452.66690      0.13265   1405.37490   1023.06866      -999.25      0.42102     76.79842
       1023.21360      2.76809    272.35190     68.67834    425.15020     -0.01500   1407.37502   1023.21916      -999.25      0.43678     75.15945
       1023.36600      3.05562    271.16960     68.67834    436.58040      0.05822   1397.12508   1023.36933      -999.25      0.40779     65.94022
       1023.51840      3.26301    270.64680     68.67834    439.28590      0.11109   1394.25000   1023.52015      -999.25      0.41787     64.06699
       1023.67080      3.30441    269.98570     68.67834    442.35720     -0.20132   1397.25008   1023.67223      -999.25      0.41153     61.40382
       1023.82320      3.30228    271.38820     68.67834    433.19970     -0.01849   1412.87497   1023.82177      -999.25      0.44493     65.23793
       1023.97560      3.38867    274.54560     68.67834    406.09550     -0.01784   1410.62486   1023.97512      -999.25      0.48758     65.00375
       1024.12800      3.39060    279.06520     68.67834    416.01270     -0.06958   1394.25000   1024.12530      -999.25      0.46704     66.32058
       1024.28040      3.17089    275.60560     68.67834    430.17000      0.04457   1399.66655   1024.28391      -999.25      0.43442     67.49129
       1024.43280      2.81868    277.27010     68.67834    458.75090     -0.28895   1402.37505   1024.44153      -999.25      0.38650     68.89626
       1024.58520      2.58993    276.67510     68.67834    444.24590     -0.76086   1398.12503   1024.59076      -999.25      0.39609     68.36938
       1024.73760      2.24189    278.04830     68.67834    449.17890     -0.08786   1391.75013   1024.73903      -999.25      0.39256     72.58399
