~VERSION INFORMATION 
VERS  .    2.0                                     :CWLS Log ASCII Standard - VERSION 2.0
WRAP  .    NO                                      :One Line per Depth step
PROD  .    Schlumberger Technology Corp.           :LAS Producer
PROG  .    Horizon LASWriter 6.2.64464.3100        :LAS Program name and version
SOURCE.    1-Log[5]/Up                             :Run&Pass Information
CREA  .    01/05/2017                              :LAS Creation date {MM/DD/YYYY}
#--------------------------------------------------
~WELL INFORMATION 
#MNEM           .UNIT                      DATA            :DESCRIPTION
#----            ------          --------------            -----------------------------
STRT            .m                     16.91640            :START DEPTH
STOP            .m                   1777.89840            :STOP DEPTH
STEP            .m                       0.1524            :STEP
NULL            .                       -999.25            :NULL VALUE
COMP            .                      YPF S.A.            :COMPANY
WELL            .                 YPF.SC.LC-941            :WELL NAME
FLD             .                 LOMAS DEL CUY            :FIELD NAME
RIGN            .                                          :Rig Name
RIGTYP          .                                          :Rig Type
SON             .                                          :Service Order Number
SRVC            .                  Schlumberger            :SERVICE COMPANY
DATE            .                    01/05/2017            :LOG DATE(Composite Date for Composite LAP) (MM/DD/YYYY)
CLAB            .                    Provincia:            :County Label
CNTY            .                    SANTA CRUZ            :COUNTY
SLAB            .                          UWI:            :State/Province Label
STAT            .                 No disponible            :STATE or PROVINCE
PROV            .                 No disponible            :STATE or PROVINCE
CTRY            .                     ARGENTINA            :COUNTRY
CONT_REGION     .                                          :Continent Region
SECT            .                       RIGLESS            :Section
TOWN            .                NT Ground Level G.L       :Township
RANG            .                M.R Drilling Floor D.F    :Range
API             .                                          :API NUMBER
UWI             .                                          :UNIQUE WELL ID
LUL             .                  CANADON SECO            :Logging Unit Location
LUN             .                          7008            :Logging Unit Number
LOC             .                          ARCS            :FIELD LOCATION
FL1             .                X: 4.856.702,40           :Field Location Line 1
FL2             .                Y: 2.494.852,45           :Field Location Line 2
LATI            .deg                 0° 0' 0" N            :LATITUDE
LONG            .deg                 0° 0' 0" E            :LONGITUDE
PDAT            .                            GL            :Local Permanent Datum
LMF             .                            GL            :Logging Measured From
APD             .m                      0.00000            :Elevation of Depth Reference (LMF) Above Permanent Datum
EPD             .m                    573.57000            :Elevation of Permanent Datum (PDAT) above Mean Sea Level
EKB             .m                      5.30000            :Elevation of Kelly Bushing Above Permanent Datum
EDF             .m                      5.30000            :Elevation of Drill Floor Above Permanent Datum
EGL             .m                      0.00000            :Elevation of Ground Level Above Permanent Datum
ECF             .m                      -999.25            :Elevation of Casing Flange above Permanent Datum
#--------------------------------------------------
~CURVE INFORMATION
#MNEM           .UNIT                  API CODE            :DESCRIPTION
#----            ------          --------------            -----------------------------
DEPT            .m                                         :                                                        Depth Index
CFTC            .1/s                                       :        (HGNS-H)                (6in)                   Corrected Far Thermal Count Rate
GR              .gAPI                                      :        (HGNS-H)                (6in)                   Gamma Ray
TNPH            .m3/m3                                     :        (HGNS-H)                (6in)                   Thermal Neutron Porosity (Ratio Method) in Selected Lithology
CBL             .mV                                        :        (ASLT-A)                (6in)                   CBL Amplitude
CBLF            .mV                                        :        (ASLT-A)                (6in)                   CBL Amplitude (Fluid Compensated)
TT              .us                                        :        (ASLT-A)                (6in)                   Transit Time for CBL
CCL             .                                          :        (CAL-YA)                (1in)                   Casing Collar Locator Amplitude
#-------------------------------------------------------------
#            DEPT         CFTC           GR         TNPH          CBL         CBLF           TT          CCL 
#                     (HGNS-H)     (HGNS-H)     (HGNS-H)     (ASLT-A)     (ASLT-A)     (ASLT-A)     (CAL-YA) 
#                                                                                                            
#                        (6in)        (6in)        (6in)        (6in)        (6in)        (6in)        (1in) 
~ASCII
# ...
       1652.16840    935.92380     59.79379      0.25248      6.60316      5.28253    287.27360      0.03489
       1652.32080    971.73820     50.94068      0.23501      7.11630      5.69304    283.49710      0.00628
       1652.47320    970.39510     41.84161      0.23691      8.19884      6.55907    284.28480      2.06668
       1652.62560    919.86820     42.40372      0.25748      8.59474      6.87580    282.05050     -0.01508
       1652.77800    862.03310     46.47889      0.27215      9.73302      7.78642    287.23490     -0.02960
       1652.93040    860.56820     56.31557      0.27507     12.17687      9.74149    281.51320     -0.01250
       1653.08280    881.70720     61.86643      0.27654     14.35011     11.48009    278.87300     -0.01272
       1653.23520    887.27620     63.55293      0.27796     16.09207     12.87366    279.30170     -0.03498
       1653.38760    909.87840     65.27470      0.25905     17.69866     14.15893    279.00420      0.01293
       1653.54000    874.69980     68.99835      0.26749     18.74307     14.99445    279.65360     -0.01481
       1653.69240    819.41410     77.14890      0.28132     19.27003     15.41603    279.49610     -0.00444
       1653.84480    771.36400     76.41109      0.28724     19.27342     15.41874    279.40670      0.02226
       1653.99720    775.05140     79.22194      0.27942     18.54314     14.83451    279.43550     -0.00563
       1654.14960    747.47650     85.22899      0.28709     17.26112     13.80890    279.91810     -0.00579
       1654.30200    735.73170     90.14740      0.29322     15.56904     12.45523    279.78640      0.01796
       1654.45440    667.20180     89.58511      0.33146     13.82949     11.06359    279.81110      0.02762
       1654.60680    669.11050     83.19172      0.33833     12.88643     10.30914    279.63140      0.04783
       1654.75920    660.48990     78.58921      0.33615     12.04140      9.63312    278.73270      0.02440
       1654.91160    718.86150     79.25659      0.29455     10.71202      8.56961    279.71500      0.03445
       1655.06400    744.53530     76.55158      0.28137      9.91330      7.93064    279.41420      0.03401
       1655.21640    748.48700     79.64312      0.28529      9.86870      7.89496    279.67870      0.03346
       1655.36880    757.72050     82.84063      0.27791      9.92097      7.93677    279.16720      0.05278
       1655.52120    727.69630     88.18019      0.29718      9.80223      7.84178    279.81870      0.01922
       1655.67360    720.23960     89.93692      0.30585      9.64559      7.71647    278.57420      0.01951
       1655.82600    691.63580     86.63408      0.33841      9.47985      7.58388    277.51290     -0.02666
       1655.97840    754.99200     83.26163      0.30422      9.51052      7.60842    279.17250      0.01165
       1656.13080    782.01920     84.03459      0.29208     10.10525      8.08420    279.17690     -0.03743
       1656.28320    792.52550     92.50138      0.28578     10.74019      8.59216    279.78550      0.02222
       1656.43560    770.71950     97.84119      0.30351     11.08285      8.86628    279.16960      0.01891
       1656.58800    721.22450     98.12232      0.32159     11.79751      9.43801    278.88530      0.02042
       1656.74040    727.33500     98.12257      0.30657     12.72788     10.18230    279.79140      0.02089
       1656.89280    675.31680    102.86510      0.33785     13.25776     10.60621    278.83720      0.03291
       1657.04520    669.62320    111.01540      0.34751     13.62801     10.90241    279.31460      0.01406
       1657.19760    668.60830    104.86720      0.35123     14.63658     11.70927    278.82570      0.01372
       1657.35000    776.80060     90.28800      0.30415     16.54829     13.23863    279.89970      0.04014
       1657.50240    915.92820     74.93540      0.25659     18.84952     15.07962    279.71880      0.03177
       1657.65480   1070.10300     61.65563      0.21689     21.55440     17.24352    280.31310      0.02361
       1657.80720   1122.21900     51.25681      0.20902     24.52439     19.61952    280.45670     -0.01148
       1657.95960   1139.65700     43.87946      0.20566     28.39505     22.71604    280.42130      0.01690
       1658.11200   1074.01800     46.97108      0.21661     34.16460     27.33168    281.06460      0.07897
       1658.26440   1023.44500     52.52170      0.22544     39.58976     31.67181    281.52630     -0.00597
       1658.41680    937.63530     52.48652      0.24962     42.92326     34.33861    281.31170      0.01751
       1658.56920    914.90860     47.18164      0.25203     45.54379     36.43503    281.33670      0.00042
       1658.72160    895.39400     50.13263      0.25682     46.90933     37.52747    281.48890      0.05306
       1658.87400    904.38300     50.97568      0.25869     45.40355     36.32285    281.27860      0.04273
       1659.02640    861.96300     55.15647      0.28787     42.41135     33.92908    281.00820      0.06842
       1659.17880    892.93270     48.90318      0.27321     39.27563     31.42051    280.98140      0.06323
       1659.33120    929.01720     42.68499      0.26347     35.76616     28.61293    281.14230      0.03418
       1659.48360   1020.35700     37.34478      0.23639     32.28720     25.82976    280.95390     -0.00695
       1659.63600   1074.37500     34.25300      0.22233     29.92051     23.93641    280.69380     -0.00194
       1659.78840   1048.20900     34.00708      0.22702     27.31497     21.85197    280.75880      0.01967
       1659.94080   1018.85200     38.60942      0.23134     22.35844     17.88675    279.80580     -0.01576
       1660.09320    909.56100     46.76016      0.25837     17.09109     13.67287    279.55150      0.03514
       1660.24560    855.63510     59.68862      0.27018     13.56739     10.85391    279.34230      0.00319
       1660.39800    789.80330     66.32844      0.30195     11.02838      8.82270    279.11510      0.02101
       1660.55040    798.54820     64.32590      0.28862      8.89396      7.11517    279.52930      0.03071
       1660.70280    846.81610     63.48265      0.26091      7.67654      6.14123    278.72100      0.03199
       1660.85520    843.34920     64.04478      0.27305      7.27454      5.81963    279.80260      0.03046
       1661.00760    806.72140     66.01210      0.30266      6.88446      5.50757    280.06800      0.03668
       1661.16000    825.29680     64.60683      0.29571      6.33195      5.06556    281.06700     -0.00014
       1661.31240    902.40300     55.43760      0.26676      5.62580      4.50064    280.38820     -0.01037
       1661.46480    987.14640     51.81891      0.24742      4.94697      3.95757    282.79620     -0.00691
       1661.61720   1008.73500     45.56533      0.24137      4.55020      3.64016    282.19920      0.02046
       1661.76960    973.96370     51.92415      0.25214      4.40860      3.52688    282.14340     -0.01570
       1661.92200    931.07400     55.78890      0.25319      4.42445      3.53956    281.56710      0.02764
       1662.07440    861.33440     65.41470      0.27367      4.41983      3.53587    282.16940      0.01289
       1662.22680    797.34550     62.99051      0.29421      4.36457      3.49166    281.40020      0.02611
       1662.37920    775.00650     62.49859      0.29831      4.46533      3.57226    281.11970      0.02104
       1662.53160    759.91480     61.48036      0.29827      4.56470      3.65176    281.41120      0.02014
       1662.68400    762.83100     68.40102      0.28926      4.60751      3.68601    282.66860     -0.00111
       1662.83640    722.86930     75.53268      0.30453      4.91812      3.93450    282.04120     -0.00705
       1662.98880    675.38750     77.11315      0.32514      5.40972      4.32778    280.83510      0.02241
       1663.14120    671.53550     77.11352      0.33058      5.71454      4.57163    280.88720      0.01992
       1663.29360    680.61590     72.19520      0.33130      5.59097      4.47277    281.00150      0.02238
