~VERSION INFORMATION 
VERS  .    2.0                                     :CWLS Log ASCII Standard - VERSION 2.0
WRAP  .    NO                                      :One Line per Depth step
PROD  .    Schlumberger Technology Corp.           :LAS Producer
PROG  .    Horizon LASWriter 6.2.64464.3100        :LAS Program name and version
SOURCE.    1-Log[5]/Up                             :Run&Pass Information
CREA  .    01/05/2017                              :LAS Creation date {MM/DD/YYYY}
#--------------------------------------------------
~WELL INFORMATION 
#MNEM           .UNIT                      DATA            :DESCRIPTION
#----            ------          --------------            -----------------------------
STRT            .m                     16.91640            :START DEPTH
STOP            .m                   1777.89840            :STOP DEPTH
STEP            .m                       0.1524            :STEP
NULL            .                       -999.25            :NULL VALUE
COMP            .                      YPF S.A.            :COMPANY
WELL            .                 YPF.SC.LC-941            :WELL NAME
FLD             .                 LOMAS DEL CUY            :FIELD NAME
RIGN            .                                          :Rig Name
RIGTYP          .                                          :Rig Type
SON             .                                          :Service Order Number
SRVC            .                  Schlumberger            :SERVICE COMPANY
DATE            .                    01/05/2017            :LOG DATE(Composite Date for Composite LAP) (MM/DD/YYYY)
CLAB            .                    Provincia:            :County Label
CNTY            .                    SANTA CRUZ            :COUNTY
SLAB            .                          UWI:            :State/Province Label
STAT            .                 No disponible            :STATE or PROVINCE
PROV            .                 No disponible            :STATE or PROVINCE
CTRY            .                     ARGENTINA            :COUNTRY
CONT_REGION     .                                          :Continent Region
SECT            .                       RIGLESS            :Section
TOWN            .                NT Ground Level G.L       :Township
RANG            .                M.R Drilling Floor D.F    :Range
API             .                                          :API NUMBER
UWI             .                                          :UNIQUE WELL ID
LUL             .                  CANADON SECO            :Logging Unit Location
LUN             .                          7008            :Logging Unit Number
LOC             .                          ARCS            :FIELD LOCATION
FL1             .                X: 4.856.702,40           :Field Location Line 1
FL2             .                Y: 2.494.852,45           :Field Location Line 2
LATI            .deg                 0° 0' 0" N            :LATITUDE
LONG            .deg                 0° 0' 0" E            :LONGITUDE
PDAT            .                            GL            :Local Permanent Datum
LMF             .                            GL            :Logging Measured From
APD             .m                      0.00000            :Elevation of Depth Reference (LMF) Above Permanent Datum
EPD             .m                    573.57000            :Elevation of Permanent Datum (PDAT) above Mean Sea Level
EKB             .m                      5.30000            :Elevation of Kelly Bushing Above Permanent Datum
EDF             .m                      5.30000            :Elevation of Drill Floor Above Permanent Datum
EGL             .m                      0.00000            :Elevation of Ground Level Above Permanent Datum
ECF             .m                      -999.25            :Elevation of Casing Flange above Permanent Datum
#--------------------------------------------------
~CURVE INFORMATION
#MNEM           .UNIT                  API CODE            :DESCRIPTION
#----            ------          --------------            -----------------------------
DEPT            .m                                         :                                                        Depth Index
CFTC            .1/s                                       :        (HGNS-H)                (6in)                   Corrected Far Thermal Count Rate
GR              .gAPI                                      :        (HGNS-H)                (6in)                   Gamma Ray
TNPH            .m3/m3                                     :        (HGNS-H)                (6in)                   Thermal Neutron Porosity (Ratio Method) in Selected Lithology
CBL             .mV                                        :        (ASLT-A)                (6in)                   CBL Amplitude
CBLF            .mV                                        :        (ASLT-A)                (6in)                   CBL Amplitude (Fluid Compensated)
TT              .us                                        :        (ASLT-A)                (6in)                   Transit Time for CBL
CCL             .                                          :        (CAL-YA)                (1in)                   Casing Collar Locator Amplitude
#-------------------------------------------------------------
#            DEPT         CFTC           GR         TNPH          CBL         CBLF           TT          CCL 
#                     (HGNS-H)     (HGNS-H)     (HGNS-H)     (ASLT-A)     (ASLT-A)     (ASLT-A)     (CAL-YA) 
#                                                                                                            
#                        (6in)        (6in)        (6in)        (6in)        (6in)        (6in)        (1in) 
~ASCII
# ...
        479.29800    328.85500     73.28989      0.53334     35.37508     28.30006    279.63590      0.02303
        479.45040    347.41070     72.55268      0.50309     34.51583     27.61266    279.76970      0.03765
        479.60280    378.09380     74.51989      0.44594     32.67562     26.14050    279.93080      0.01452
        479.75520    430.95000     79.68459      0.38244     30.86127     24.68901    279.70910      0.03046
        479.90760    451.16460     73.07895      0.38139     30.00502     24.00402    279.76670      0.02207
        480.06000    468.13950     68.16006      0.36316     29.42646     23.54117    279.67060      0.02128
        480.21240    444.69590     63.48726      0.39630     28.02810     22.42248    279.49000      0.03237
        480.36480    440.08060     67.14143      0.41033     25.94587     20.75670    279.55650      0.02570
        480.51720    454.64610     67.14150      0.39700     24.66278     19.73022    279.56400      0.02108
        480.66960    460.27370     65.66582      0.38917     24.66729     19.73383    279.34380      0.03609
        480.82200    469.48910     64.54131      0.39010     24.73084     19.78468    279.28930     -0.00427
        480.97440    472.74830     62.81964      0.39321     24.37752     19.50201    279.27850      0.02663
        481.12680    481.64620     59.13062      0.38656     24.32194     19.45755    279.21340      0.02541
        481.27920    491.58340     55.82819      0.38266     25.27966     20.22373    279.40090      0.02251
        481.43160    519.20070     54.31733      0.36470     26.95488     21.56391    279.41320      0.03061
        481.58400    555.66940     58.25259      0.33185     28.01647     22.41318    279.48010      0.04292
        481.73640    578.36620     53.57967      0.31629     28.18727     22.54982    279.45690      0.02590
        481.88880    555.59430     48.52056      0.33331     28.04494     22.43596    279.36920      0.02532
        482.04120    534.26760     42.61761      0.33216     27.49167     21.99334    279.51450      0.00433
        482.19360    468.74620     51.47152      0.37031     26.94312     21.55450    279.63620      0.03302
        482.34600    387.12660     52.38496      0.45439     27.26854     21.81483    279.73700      0.02854
        482.49840    327.54730     58.77936      0.54475     28.32358     22.65886    279.85440      0.02856
        482.65080    313.03180     56.21435      0.56530     29.62964     23.70371    279.73050      0.02731
        482.80320    332.40160     60.64132      0.49312     31.80048     25.44039    279.64980      0.02602
        482.95560    324.57930     56.95227      0.51994     34.92418     27.93934    279.95940      0.02744
        483.10800    312.48250     60.60644      0.57666     37.09469     29.67575    279.78960      0.00100
        483.26040    297.16620     60.11445      0.67244     36.82959     29.46367    279.93100      0.02830
        483.41280    304.98790     60.36045      0.62280     35.28456     28.22765    279.87780      0.03611
        483.56520    333.09520     57.79559      0.50325     34.57637     27.66110    279.87660      0.03567
        483.71760    337.93150     57.16327      0.49702     34.75642     27.80514    279.96980      0.02074
        483.87000    350.04350     63.55763      0.47448     34.92211     27.93769    280.09420      0.02321
        484.02240    350.96620     63.31179      0.47311     35.56481     28.45185    279.95950     -0.00372
        484.17480    364.21950     64.15485      0.43707     37.40466     29.92373    280.02310      0.02110
        484.32720    355.33510     57.26864      0.44820     40.38591     32.30873    280.18690      0.01925
        484.47960    337.58620     55.30088      0.47708     43.01019     34.40815    280.33510      0.00115
        484.63200    315.45250     54.10656      0.52227     43.60481     34.88385    280.27500      0.00831
        484.78440    297.95220     51.89301      0.60012     43.84152     35.07322    280.39140      0.01403
        484.93680    293.11610     54.98501      0.68270     45.46367     36.37093    280.44160      0.02961
        485.08920    309.25260     54.98471      0.64979     47.14817     37.71854    280.65030      0.03574
        485.24160    329.56680     60.14951      0.58409     48.69081     38.95265    280.74750      0.01464
        485.39400    377.18930     60.71170      0.48757     52.26273     41.81018    280.74480      0.01379
        485.54640    430.51540     61.69551      0.43016     57.88761     46.31009    280.83040      0.00029
        485.69880    505.32660     62.43332      0.35241     62.14529     49.71624    281.06340      0.00043
        485.85120    523.70810     63.55742      0.33996     63.29772     50.63818    281.00570      0.03608
        486.00360    542.33000     67.00069      0.32847     63.05125     50.44100    281.06230     -0.00188
        486.15600    549.63540     65.03329      0.32989     62.68984     50.15187    281.03790      0.02097
        486.30840    589.45900     61.48459      0.29843     61.90347     49.52278    281.00950      0.01235
        486.46080    597.55290     54.59854      0.29867     61.04753     48.83803    280.96620     -0.00086
        486.61320    587.08530     49.67961      0.30715     61.37783     49.10226    280.96020      0.01288
        486.76560    543.49930     47.46635      0.32412     62.59699     50.07759    280.98650      0.01718
        486.91800    479.58300     46.23651      0.35368     62.06216     49.64973    281.04040      0.02463
        487.07040    407.53920     49.22270      0.41561     58.17529     46.54023    280.87570      0.01869
        487.22280    341.27830     49.96050      0.48357     53.05256     42.44204    280.88670      0.02847
        487.37520    345.31830     55.12508      0.44385     49.49555     39.59644    280.93030      0.02061
        487.52760    352.13820     59.34116      0.43460     48.27588     38.62070    281.06190      0.03943
        487.68000    364.24760     59.09558      0.41613     48.29389     38.63511    281.05740      0.03130
        487.83240    344.07590     57.37398      0.45277     49.18755     39.35004    281.04970      0.01922
        487.98480    325.62460     52.13918      0.50513     52.27468     41.81974    281.09990      0.02578
        488.13720    330.46930     51.40106      0.48438     56.73782     45.39025    281.06980      0.00201
        488.28960    316.75640     50.31238      0.51689     58.69424     46.95539    281.03010      0.01486
        488.44200    329.20480     53.50932      0.49625     55.12515     44.10012    280.86530      0.01948
        488.59440    317.65810     52.27975      0.51045     48.72680     38.98144    280.69500     -0.01646
        488.74680    322.48900     53.68478      0.47842     43.73624     34.98899    280.71290      0.01011
        488.89920    294.30280     50.97963      0.57809     39.89561     31.91649    280.64610      0.03056
        489.05160    306.28950     55.89814      0.52271     36.39357     29.11485    280.49170      0.01981
        489.20400    311.12880     56.07386      0.49510     33.98712     27.18969    280.46290      0.01274
        489.35640    330.44530     58.84949      0.45026     32.86235     26.28988    280.36150      0.05093
        489.50880    323.53120     61.80091      0.46864     32.83221     26.26577    280.34680      0.02690
        489.66120    324.33780     62.53867      0.47584     33.85933     27.08746    280.40010     -0.00357
        489.81360    310.61770     65.63054      0.51120     36.29189     29.03351    280.57240      0.03360
        489.96600    313.85190     59.48214      0.50234     35.27632     28.22106    280.79050      0.02384
        490.11840    309.82230     62.67929      0.53062     29.65029     23.72023    280.34350      0.02586
        490.27080    321.10840     61.48476      0.50675     28.08985     22.47188    289.06760      0.01704
        490.42320    315.56130     66.71980      0.50503     29.75542     23.80433    284.84120      0.03796
