~VERSION INFORMATION 
VERS  .    2.0                                     :CWLS Log ASCII Standard - VERSION 2.0
WRAP  .    NO                                      :One Line per Depth step
PROD  .    Schlumberger Technology Corp.           :LAS Producer
PROG  .    Horizon LASWriter 6.2.64464.3100        :LAS Program name and version
SOURCE.    1-Log[5]/Up                             :Run&Pass Information
CREA  .    01/05/2017                              :LAS Creation date {MM/DD/YYYY}
#--------------------------------------------------
~WELL INFORMATION 
#MNEM           .UNIT                      DATA            :DESCRIPTION
#----            ------          --------------            -----------------------------
STRT            .m                     16.91640            :START DEPTH
STOP            .m                   1777.89840            :STOP DEPTH
STEP            .m                       0.1524            :STEP
NULL            .                       -999.25            :NULL VALUE
COMP            .                      YPF S.A.            :COMPANY
WELL            .                 YPF.SC.LC-941            :WELL NAME
FLD             .                 LOMAS DEL CUY            :FIELD NAME
RIGN            .                                          :Rig Name
RIGTYP          .                                          :Rig Type
SON             .                                          :Service Order Number
SRVC            .                  Schlumberger            :SERVICE COMPANY
DATE            .                    01/05/2017            :LOG DATE(Composite Date for Composite LAP) (MM/DD/YYYY)
CLAB            .                    Provincia:            :County Label
CNTY            .                    SANTA CRUZ            :COUNTY
SLAB            .                          UWI:            :State/Province Label
STAT            .                 No disponible            :STATE or PROVINCE
PROV            .                 No disponible            :STATE or PROVINCE
CTRY            .                     ARGENTINA            :COUNTRY
CONT_REGION     .                                          :Continent Region
SECT            .                       RIGLESS            :Section
TOWN            .                NT Ground Level G.L       :Township
RANG            .                M.R Drilling Floor D.F    :Range
API             .                                          :API NUMBER
UWI             .                                          :UNIQUE WELL ID
LUL             .                  CANADON SECO            :Logging Unit Location
LUN             .                          7008            :Logging Unit Number
LOC             .                          ARCS            :FIELD LOCATION
FL1             .                X: 4.856.702,40           :Field Location Line 1
FL2             .                Y: 2.494.852,45           :Field Location Line 2
LATI            .deg                 0° 0' 0" N            :LATITUDE
LONG            .deg                 0° 0' 0" E            :LONGITUDE
PDAT            .                            GL            :Local Permanent Datum
LMF             .                            GL            :Logging Measured From
APD             .m                      0.00000            :Elevation of Depth Reference (LMF) Above Permanent Datum
EPD             .m                    573.57000            :Elevation of Permanent Datum (PDAT) above Mean Sea Level
EKB             .m                      5.30000            :Elevation of Kelly Bushing Above Permanent Datum
EDF             .m                      5.30000            :Elevation of Drill Floor Above Permanent Datum
EGL             .m                      0.00000            :Elevation of Ground Level Above Permanent Datum
ECF             .m                      -999.25            :Elevation of Casing Flange above Permanent Datum
#--------------------------------------------------
~CURVE INFORMATION
#MNEM           .UNIT                  API CODE            :DESCRIPTION
#----            ------          --------------            -----------------------------
DEPT            .m                                         :                                                        Depth Index
CFTC            .1/s                                       :        (HGNS-H)                (6in)                   Corrected Far Thermal Count Rate
GR              .gAPI                                      :        (HGNS-H)                (6in)                   Gamma Ray
TNPH            .m3/m3                                     :        (HGNS-H)                (6in)                   Thermal Neutron Porosity (Ratio Method) in Selected Lithology
CBL             .mV                                        :        (ASLT-A)                (6in)                   CBL Amplitude
CBLF            .mV                                        :        (ASLT-A)                (6in)                   CBL Amplitude (Fluid Compensated)
TT              .us                                        :        (ASLT-A)                (6in)                   Transit Time for CBL
CCL             .                                          :        (CAL-YA)                (1in)                   Casing Collar Locator Amplitude
#-------------------------------------------------------------
#            DEPT         CFTC           GR         TNPH          CBL         CBLF           TT          CCL 
#                     (HGNS-H)     (HGNS-H)     (HGNS-H)     (ASLT-A)     (ASLT-A)     (ASLT-A)     (CAL-YA) 
#                                                                                                            
#                        (6in)        (6in)        (6in)        (6in)        (6in)        (6in)        (1in) 
~ASCII
# ...
       1178.50920    667.77560     75.00671      0.33108     18.48393     14.78715    280.58710      0.02425
       1178.66160    625.60210     75.25251      0.35383     17.58681     14.06944    280.70750      0.02523
       1178.81400    612.27020     79.43304      0.36076     16.88974     13.51179    280.59240      0.00701
       1178.96640    613.07750     80.41664      0.36362     17.13567     13.70853    280.51240      0.00655
       1179.11880    625.22510     81.82176      0.36427     18.02689     14.42151    280.49150      0.00493
       1179.27120    631.69350     82.31358      0.36819     18.62604     14.90083    280.63910      0.03657
       1179.42360    651.66610     85.75677      0.35622     19.60253     15.68202    280.54140      0.01975
       1179.57600    680.07680     86.07320      0.33430     20.71650     16.57320    280.79170      0.01520
       1179.72840    685.79320     85.08978      0.31982     20.90336     16.72269    280.71090      0.02329
       1179.88080    660.14480     80.90891      0.32789     20.25456     16.20365    280.70590      0.02047
       1180.03320    631.73410     83.61410      0.32775     18.74566     14.99653    280.43100      0.02588
       1180.18560    600.07350     82.87620      0.34868     16.79937     13.43950    280.31570     -0.00029
       1180.33800    579.01870     81.50613      0.35291     14.74613     11.79690    280.21340      0.00999
       1180.49040    543.39830     76.09573      0.37784     12.84827     10.27862    280.04550      0.02459
       1180.64280    507.64210     76.09583      0.41764     11.73284      9.38627    280.23360      0.02623
       1180.79520    493.05610     77.21990      0.44488     11.25324      9.00259    280.44440      0.02273
       1180.94760    524.66460     82.87640      0.39959     11.06292      8.85034    280.14040     -0.00291
       1181.10000    532.06200     82.13853      0.39404     10.98447      8.78758    280.23080      0.04517
       1181.25240    539.38490     77.95766      0.38754     10.90654      8.72523    280.65730      0.03028
       1181.40480    496.45320     74.51456      0.42634     11.06598      8.85279    280.19490      0.01067
       1181.55720    517.49920     72.65279      0.39911     11.72914      9.38331    280.14720      0.00760
       1181.70960    521.49540     75.85007      0.39978     12.53109     10.02487    280.17900      0.02766
       1181.86200    570.86550     75.35796      0.34872     13.11816     10.49453    279.70980      0.03229
       1182.01440    562.75590     82.87612      0.36373     13.78324     11.02659    280.05410      0.01009
       1182.16680    577.38280     83.61378      0.35606     14.70409     11.76327    279.98900      0.00920
       1182.31920    558.78420     79.43308      0.37568     15.17634     12.14107    280.06810     -0.00569
       1182.47160    578.27280     70.08797      0.35574     14.84706     11.87765    280.07550      0.03634
       1182.62400    567.74540     69.10410      0.35503     14.51588     11.61271    279.98210      0.02493
       1182.77640    574.22360     72.05557      0.33707     14.47192     11.57754    279.68780      0.01256
       1182.92880    564.93980     75.00647      0.33405     14.75365     11.80292    279.60180      0.00865
       1183.08120    522.82290     75.49851      0.36207     15.43928     12.35143    279.80330      0.02836
       1183.23360    503.35290     79.43307      0.36099     16.18805     12.95044    279.58190      0.01487
       1183.38600    458.37040     82.38406      0.40623     17.57236     14.05789    279.67300      0.00831
       1183.53840    448.65110     85.33502      0.40307     19.85128     15.88103    280.12640     -0.01166
       1183.69080    415.52810     81.40051      0.42573     21.99632     17.59705    280.15350      0.02954
       1183.84320    402.60900     78.16843      0.43294     22.77792     18.22234    280.24590      0.03523
       1183.99560    399.37840     75.46343      0.43402     21.85884     17.48707    280.10330     -0.01062
       1184.14800    409.17610     74.72568      0.42144     20.64875     16.51900    280.30900      0.01675
       1184.30040    426.15640     76.97424      0.40574     18.85599     15.08479    280.52810      0.02671
       1184.45280    426.17090     76.48225      0.42340     15.74044     12.59235    280.12220      0.02943
       1184.60520    432.56220     80.41676      0.42375     13.09387     10.47509    279.71740      0.00495
       1184.75760    444.67120     74.76038      0.43122     11.73638      9.38910    280.03320     -0.00204
       1184.91000    460.03390     76.72787      0.41389     11.22915      8.98332    279.96640      0.01788
       1185.06240    476.17000     71.77454      0.39483     11.34035      9.07228    280.06140      0.03489
       1185.21480    457.61910     71.77483      0.42047     13.04354     10.43484    280.09900     -0.01788
       1185.36720    471.79260     68.57791      0.40351     13.76260     11.01008    285.97060      0.01895
       1185.51960    441.06690     72.79343      0.42839     11.74896      9.39917    285.31540      0.02205
       1185.67200    455.58230     73.53075      0.38945     11.77280      9.41824    284.70790      0.04629
       1185.82440    411.49790     72.54713      0.43980     13.42578     10.74062    284.44840      2.00608
       1185.97680    413.91090     70.33376      0.41812     13.82206     11.05765    284.09150      0.02826
       1186.12920    388.86110     73.56630      0.46185     13.41270     10.73016    284.03860      0.04165
       1186.28160    430.87440     76.27162      0.41483     14.96096     11.96877    278.61250     -0.03028
       1186.43400    483.89440     78.23872      0.38890     18.67539     14.94031    280.04900      0.02199
       1186.58640    536.47240     75.74433      0.35823     19.74316     15.79453    279.98940      0.01810
       1186.73880    565.61790     68.36637      0.34906     18.69979     14.95984    279.46770      0.01784
       1186.89120    573.29510     65.41559      0.35360     18.52860     14.82288    280.13510     -0.00276
       1187.04360    586.26640     70.57996      0.34607     18.85748     15.08598    280.06880      0.05527
       1187.19600    602.50430     77.46571      0.32937     19.01650     15.21320    280.06600      0.03565
       1187.34840    624.45580     77.46581      0.30860     19.15680     15.32544    280.27920      0.02194
       1187.50080    624.45650     75.07652      0.31206     19.86054     15.88843    280.32500      0.03094
       1187.65320    583.00650     76.30627      0.34580     20.69615     16.55692    280.17590      0.03948
       1187.80560    527.86610     74.09309      0.39742     21.21204     16.96963    280.28500      0.03758
       1187.95800    520.57610     75.74463      0.40041     21.94088     17.55270    280.29320      0.03084
       1188.11040    546.63090     78.94180      0.37128     22.64435     18.11548    280.35850      0.03039
       1188.26280    556.32040     79.67943      0.35788     23.19882     18.55906    280.39000     -0.01556
       1188.41520    565.22660     74.51468      0.35029     24.37769     19.50215    280.46510      0.04593
       1188.56760    574.12280     64.67767      0.34946     25.98387     20.78710    280.64750      0.03475
       1188.72000    626.01950     64.29099      0.32160     26.79853     21.43882    280.48060      0.03610
       1188.87240    669.08670     60.35664      0.30948     26.81360     21.45088    280.51630     -0.00029
       1189.02480    730.82670     58.63506      0.29360     27.34192     21.87354    280.69820      0.04812
       1189.17720    756.86150     53.36549      0.28728     29.09036     23.27229    280.97030      0.05700
       1189.32960    796.77440     56.31653      0.27479     31.73448     25.38758    281.17790      0.01635
       1189.48200    818.81240     55.57876      0.26647     34.54668     27.63734    281.11940      0.00682
       1189.63440    784.66860     56.56232      0.28102     37.92709     30.34167    281.60070      0.03408
