~VERSION INFORMATION 
VERS  .    2.0                                     :CWLS Log ASCII Standard - VERSION 2.0
WRAP  .    NO                                      :One Line per Depth step
PROD  .    Schlumberger Technology Corp.           :LAS Producer
PROG  .    Horizon LASWriter 8.0.95333.3100        :LAS Program name and version
SOURCE.    CARRERA_02: CBL-VDL-NL-GR-Log[4]/Up     :Run&Pass Information
CREA  .    06/11/2018                              :LAS Creation date {MM/DD/YYYY}
#--------------------------------------------------
~WELL INFORMATION 
#MNEM           .UNIT                      DATA            :DESCRIPTION
#----            ------          --------------            -----------------------------
STRT            .m                    454.91400            :START DEPTH
STOP            .m                   2158.89840            :STOP DEPTH
STEP            .m                       0.1524            :STEP
NULL            .                       -999.25            :NULL VALUE
COMP            .                       YPF S.A            :COMPANY
WELL            .                YPF.SC.ECH-212            :WELL NAME
FLD             .                ESTANCIA CHOLITA          :FIELD NAME
RIGN            .                                          :Rig Name
RIGTYP          .                                          :Rig Type
SON             .                 TICKET NUMBER            :Service Order Number
SRVC            .                  Schlumberger            :SERVICE COMPANY
DATE            .                    06/08/2018            :LOG DATE(Composite Date for Composite LAP) (MM/DD/YYYY)
CLAB            .                       County:            :County Label
CNTY            .                    SANTA CRUZ            :COUNTY
SLAB            .                          UWI:            :State/Province Label
STAT            .                AR030000968000            :STATE or PROVINCE
PROV            .                AR030000968000            :STATE or PROVINCE
CTRY            .                     ARGENTINA            :COUNTRY
CONT_REGION     .                                          :Continent Region
SECT            .                       Rigless            :Section
TOWN            .                    4856781.85            :Township
RANG            .                    2459103.27            :Range
API             .                                          :API NUMBER
UWI             .                                          :UNIQUE WELL ID
LUL             .                          ARCS            :Logging Unit Location
LUN             .                          7062            :Logging Unit Number
LOC             .                          ARCS            :FIELD LOCATION
FL1             .                                          :Field Location Line 1
FL2             .                                          :Field Location Line 2
LATI            .deg                 -48.567818            :LATITUDE
LONG            .deg                  24.591030            :LONGITUDE
PDAT            .                            GL            :Local Permanent Datum
LMF             .                            GL            :Logging Measured From
APD             .m                      0.00000            :Elevation of Depth Reference (LMF) Above Permanent Datum
EPD             .m                    554.51000            :Elevation of Permanent Datum (PDAT) above Mean Sea Level
EKB             .m                      0.00000            :Elevation of Kelly Bushing Above Permanent Datum
EDF             .m                      0.00000            :Elevation of Drill Floor Above Permanent Datum
EGL             .m                      0.00000            :Elevation of Ground Level Above Permanent Datum
ECF             .m                      -999.25            :Elevation of Casing Flange above Permanent Datum
#--------------------------------------------------
~CURVE INFORMATION
#MNEM           .UNIT                  API CODE            :DESCRIPTION
#----            ------          --------------            -----------------------------
DEPT            .m                                         :                                                        Depth Index
CBLF            .mV                                        :        (DSLT-H)                (6in)                   CBL Amplitude (Fluid Compensated)
TT              .us                                        :        (DSLT-H)                (6in)                   Transit Time for CBL
CTEM            .degC                                      :        (HGNS-H)                (6in)                   Cartridge Temperature
CFTC            .1/s                                       :        (HGNS-H)                (2in)                   Corrected Far Thermal Count Rate
CCL             .                                          :        (CAL-YA)                (1in)                   Casing Collar Locator Amplitude
TENS            .lbf                                       :        (WLWorkflow)            (6in)                   Cable Tension
DEPTH           .m                                         :        (WLWorkflow)            (6in)                   Depth Index
SDEV            .deg                                       :        (HGNS-H)                (6in)                   Sonde Deviation
TNPH            .V/V                                       :        (HGNS-H)                (6in)                   Thermal Neutron Porosity (Ratio Method) in Selected Lithology
GR              .gAPI                                      :        (HGNS-H)                (6in)                   Gamma Ray
#-------------------------------------------------------------
#            DEPT         CBLF           TT         CTEM         CFTC          CCL         TENS        DEPTH         SDEV         TNPH           GR 
#                     (DSLT-H)     (DSLT-H)     (HGNS-H)     (HGNS-H)     (CAL-YA)  (WLWorkflo)  (WLWorkflo)     (HGNS-H)     (HGNS-H)     (HGNS-H) 
#                                                                                                                                                   
#                        (6in)        (6in)        (6in)        (2in)        (1in)        (6in)        (6in)        (6in)        (6in)        (6in) 
~ASCII
        454.91400      9.81435    268.94740      -999.25    305.14400      0.08004    909.00012    454.91860      -999.25      0.46918      -999.25
        455.06640     10.21052    268.64080     42.67405    296.00910     -0.05214    893.11108    455.07132      -999.25      0.49590     62.67117
        455.21880     12.38783    269.26680     42.67405    308.95800      0.12351    932.24986    455.22340      -999.25      0.47707     63.37123
        455.37120     15.77498    269.64040     42.67405    325.31270      0.14720    917.88884    455.37556      -999.25      0.43964     67.31017
        455.52360     19.22765    269.71330     42.67405    335.96160      0.02958    890.62514    455.52757      -999.25      0.43786     71.24903
        455.67600     22.83410    270.19850     42.67405    358.47420      0.08387    901.50005    455.67203      -999.25      0.41422     84.90400
        455.82840     26.72520    270.03630     42.67405    384.01430      0.12653    900.55563    455.82655      -999.25      0.38570    100.26560
        455.98080     31.20471    270.58970     42.67405    431.67820     -0.02281    906.37503    455.97937      -999.25      0.33759    109.32500
        456.13320     35.92796    270.71770     42.67405    447.28960     -0.00972    893.33341    456.13078      -999.25      0.35197    101.62220
        456.28560     40.05901    270.53610     42.67405    456.45080      0.09971    892.66663    456.29221      -999.25      0.35497     92.56239
        456.43800     44.48848    270.74050     42.67405    469.05040      0.16830    895.50012    456.44387      -999.25      0.35895     83.89700
        456.59040     49.27923    271.04160     42.67405    496.55390      0.14903    885.55547    456.59532      -999.25      0.32738     83.89702
        456.74280     53.36171    271.21510     42.67405    511.07580      0.15038    897.87500    456.74963      -999.25      0.31386     86.26087
        456.89520     56.75655    271.14410     42.67405    501.14040      0.01133    902.50000    456.89441      -999.25      0.31410     91.42494
        457.04760     59.38830    271.24330     42.67405    468.66570      0.01407    901.77769    457.04970      -999.25      0.32962     95.36385
        457.20000     61.12288    271.30260     42.67405    447.27110     -0.06554    897.75001    457.20556      -999.25      0.33924     90.41795
        457.35240     61.00620    271.32530     42.67405    408.75720     -0.04463    902.99997    457.35224      -999.25      0.36828     91.55621
        457.50480     57.63816    271.11800     42.67405    368.75320      0.23052    896.22221    457.50633      -999.25      0.40278     60.46912
        457.65720     51.87996    270.99040     42.67405    307.43800      0.10762    889.87495    457.66085      -999.25      0.47650     61.67205
        457.80960     46.28413    270.64930     42.67405    284.20270      0.06158    900.11118    457.81565      -999.25      0.51852     60.85994
        457.96200     42.18719    270.43530     42.67405    270.51040      0.36238    899.49992    457.96660      -999.25      0.53312     63.29542
        458.11440     38.55956    270.37920     42.67405    291.83840     -0.15334    901.50005    458.11170      -999.25      0.46884     66.66338
        458.26680     34.67036    270.04020     42.67405    282.33450      0.04927    901.33346    458.26579      -999.25      0.50359     73.42905
        458.41920     31.60864    269.88200     42.67405    296.02510      0.43174    903.87493    458.42031      -999.25      0.49110     78.90191
        458.57160     30.28760    269.85710     42.67405    330.68090      0.11056    905.11115    458.57511      -999.25      0.43784     85.30669
        458.72400     29.53958    269.98110     42.67405    357.69640     -0.05293    899.24994    458.72797      -999.25      0.41733     83.95333
        458.87640     28.24121    269.88210     42.95366    372.93570      0.00934    903.49995    458.87402      -999.25      0.40806     86.84013
        459.02880     27.46868    269.81090     42.95366    401.19740      0.03524    904.11120    459.03062      -999.25      0.40961     82.78036
        459.18120     27.89882    269.92100     42.95366    464.52710      0.13582    899.12494    459.18041      -999.25      0.34815     86.05795
        459.33360     28.82065    269.86240     42.95366    529.79110     -0.07525    903.99992    459.33626      -999.25      0.31023     82.02847
        459.48600     29.82489    270.01500     42.95366    532.83960     -0.10538    912.74994    459.48838      -999.25      0.32515     82.56979
        459.63840     30.70835    270.13710     42.95366    555.40330      0.17048    891.55562    459.64191      -999.25      0.32180     80.64567
        459.79080     31.87546    270.07360     42.95366    577.57410      0.11352    906.50002    459.79636      -999.25      0.30718     75.50365
        459.94320     33.90229    270.26900     42.95366    641.10270      0.06757    917.74991    459.94241      -999.25      0.28203     73.09814
        460.09560     36.40104    270.36720     42.95366    698.93870      0.11984    908.88884    460.09798      -999.25      0.25753     68.49754
        460.24800     38.90039    270.55390     42.95366    780.72050      0.12240    911.74999    460.25229      -999.25      0.23039     72.85760
        460.40040     40.25946    270.39790     42.95366    804.52050      0.11478    908.62492    460.39738      -999.25      0.22238     73.63942
        460.55280     40.75432    270.41390     42.95366    766.95360      0.09649    910.00007    460.55123      -999.25      0.23344     71.98533
        460.70520     42.21152    270.51450     42.95366    661.08040     -0.20273    907.74996    460.70536      -999.25      0.27129     72.49672
        460.85760     43.67502    270.54450     42.95366    528.37340     -0.05597    905.00010    460.86026      -999.25      0.34190     75.74413
        461.01000     44.01412    270.58400     42.95366    424.86940      0.12704    913.37513    461.01460      -999.25      0.41662     81.03659
        461.16240     44.10812    270.61630     42.95366    358.47370      0.18567    895.37490    461.15970      -999.25      0.49133     83.47218
        461.31480     45.28600    270.65480     42.95366    359.57560      0.01635    915.11111    461.31408      -999.25      0.48521     84.25384
        461.46720     46.45163    270.86480     42.95366    359.23720      0.10114    912.74994    461.46958      -999.25      0.47717     84.94542
        461.61960     43.99189    270.70200     42.95366    370.28320     -0.02035    913.62512    461.61627      -999.25      0.44755     87.77193
        461.77200     38.81030    270.43110     42.95366    379.45620     -0.04007    923.22221    461.77015      -999.25      0.43429     93.21462
        461.92440     34.67075    270.31320     42.95366    396.59520     -0.09587    909.62509    461.92361      -999.25      0.39894     94.68784
        462.07680     32.61206    270.32810     42.95366    401.54150      0.07138    926.88885    462.07636      -999.25      0.39171     92.94364
        462.22920     31.11109    270.27090     42.95366    391.60260      0.08237    917.62492    462.23031      -999.25      0.40679     85.63669
        462.38160     28.10732    270.05110     42.95366    382.03530      0.17978    927.77774    462.38398      -999.25      0.42499     88.76371
        462.53400     24.55064    269.71750     42.95366    372.12490      0.12466    917.49993    462.53765      -999.25      0.43743     90.74867
        462.68640     22.45375    269.56350     42.95366    396.56940     -0.02108    901.12507    462.68370      -999.25      0.41250     90.20700
        462.83880     21.00895    269.72690     42.95366    385.91570      0.00352    918.88880    462.83949      -999.25      0.42586     91.41014
        462.99120     19.08601    269.42150     42.95366    374.88770      0.42468    903.12497    462.99453      -999.25      0.44354     89.42517
        463.14360     17.46624    269.35870     42.95366    350.45410     -0.15227    898.66678    463.14824      -999.25      0.48599     92.13199
