~VERSION INFORMATION 
VERS  .    2.0                                     :CWLS Log ASCII Standard - VERSION 2.0
WRAP  .    NO                                      :One Line per Depth step
PROD  .    Schlumberger Technology Corp.           :LAS Producer
PROG  .    Horizon LASWriter 6.2.64464.3100        :LAS Program name and version
SOURCE.    1-Log[5]/Up                             :Run&Pass Information
CREA  .    01/05/2017                              :LAS Creation date {MM/DD/YYYY}
#--------------------------------------------------
~WELL INFORMATION 
#MNEM           .UNIT                      DATA            :DESCRIPTION
#----            ------          --------------            -----------------------------
STRT            .m                     16.91640            :START DEPTH
STOP            .m                   1777.89840            :STOP DEPTH
STEP            .m                       0.1524            :STEP
NULL            .                       -999.25            :NULL VALUE
COMP            .                      YPF S.A.            :COMPANY
WELL            .                 YPF.SC.LC-941            :WELL NAME
FLD             .                 LOMAS DEL CUY            :FIELD NAME
RIGN            .                                          :Rig Name
RIGTYP          .                                          :Rig Type
SON             .                                          :Service Order Number
SRVC            .                  Schlumberger            :SERVICE COMPANY
DATE            .                    01/05/2017            :LOG DATE(Composite Date for Composite LAP) (MM/DD/YYYY)
CLAB            .                    Provincia:            :County Label
CNTY            .                    SANTA CRUZ            :COUNTY
SLAB            .                          UWI:            :State/Province Label
STAT            .                 No disponible            :STATE or PROVINCE
PROV            .                 No disponible            :STATE or PROVINCE
CTRY            .                     ARGENTINA            :COUNTRY
CONT_REGION     .                                          :Continent Region
SECT            .                       RIGLESS            :Section
TOWN            .                NT Ground Level G.L       :Township
RANG            .                M.R Drilling Floor D.F    :Range
API             .                                          :API NUMBER
UWI             .                                          :UNIQUE WELL ID
LUL             .                  CANADON SECO            :Logging Unit Location
LUN             .                          7008            :Logging Unit Number
LOC             .                          ARCS            :FIELD LOCATION
FL1             .                X: 4.856.702,40           :Field Location Line 1
FL2             .                Y: 2.494.852,45           :Field Location Line 2
LATI            .deg                 0° 0' 0" N            :LATITUDE
LONG            .deg                 0° 0' 0" E            :LONGITUDE
PDAT            .                            GL            :Local Permanent Datum
LMF             .                            GL            :Logging Measured From
APD             .m                      0.00000            :Elevation of Depth Reference (LMF) Above Permanent Datum
EPD             .m                    573.57000            :Elevation of Permanent Datum (PDAT) above Mean Sea Level
EKB             .m                      5.30000            :Elevation of Kelly Bushing Above Permanent Datum
EDF             .m                      5.30000            :Elevation of Drill Floor Above Permanent Datum
EGL             .m                      0.00000            :Elevation of Ground Level Above Permanent Datum
ECF             .m                      -999.25            :Elevation of Casing Flange above Permanent Datum
#--------------------------------------------------
~CURVE INFORMATION
#MNEM           .UNIT                  API CODE            :DESCRIPTION
#----            ------          --------------            -----------------------------
DEPT            .m                                         :                                                        Depth Index
CFTC            .1/s                                       :        (HGNS-H)                (6in)                   Corrected Far Thermal Count Rate
GR              .gAPI                                      :        (HGNS-H)                (6in)                   Gamma Ray
TNPH            .m3/m3                                     :        (HGNS-H)                (6in)                   Thermal Neutron Porosity (Ratio Method) in Selected Lithology
CBL             .mV                                        :        (ASLT-A)                (6in)                   CBL Amplitude
CBLF            .mV                                        :        (ASLT-A)                (6in)                   CBL Amplitude (Fluid Compensated)
TT              .us                                        :        (ASLT-A)                (6in)                   Transit Time for CBL
CCL             .                                          :        (CAL-YA)                (1in)                   Casing Collar Locator Amplitude
#-------------------------------------------------------------
#            DEPT         CFTC           GR         TNPH          CBL         CBLF           TT          CCL 
#                     (HGNS-H)     (HGNS-H)     (HGNS-H)     (ASLT-A)     (ASLT-A)     (ASLT-A)     (CAL-YA) 
#                                                                                                            
#                        (6in)        (6in)        (6in)        (6in)        (6in)        (6in)        (1in) 
~ASCII
# ...
       1415.33880    685.51520     70.54412      0.33190      3.00418      2.40335    284.00730      0.00210
       1415.49120    709.78020     66.43355      0.32218      3.36955      2.69564    283.32680     -0.00112
       1415.64360    728.33120     63.90446      0.31397      3.87694      3.10155    282.72970      0.00028
       1415.79600    740.45740     58.95078      0.31347      5.10354      4.08283    282.02640      0.01604
       1415.94840    736.51400     61.65576      0.31529      7.24432      5.79546    279.80810      0.09740
       1416.10080    730.93710     62.70949      0.31791      9.72856      7.78285    279.22720     -0.01562
       1416.25320    752.05890     66.82015      0.30456     12.32852      9.86282    279.02570     -0.00669
       1416.40560    810.92360     61.65582      0.28334     15.04736     12.03789    279.53560      0.03417
       1416.55800    848.22560     57.72101      0.26681     16.42444     13.13955    280.11700      0.02021
       1416.71040    853.12100     55.75361      0.27214     15.63489     12.50791    279.50960      0.01813
       1416.86280    900.27130     59.23151      0.26047     15.08612     12.06889    279.39090      0.01506
       1417.01520    926.27550     57.51054      0.26159     15.89230     12.71384    279.93100      0.02325
       1417.16760   1030.84000     52.41634      0.23265     17.48542     13.98833    282.02870      0.01638
       1417.32000   1039.73000     42.57981      0.24154     17.93624     14.34899    287.48050      0.01241
       1417.47240   1099.47700     41.84153      0.22171     15.56866     12.45493    283.91380      0.01485
       1417.62480   1063.93000     40.19044      0.22329     13.10932     10.48745    283.91940     -0.15084
       1417.77720   1006.05300     47.28693      0.23712     10.70319      8.56255    283.71100     -0.54720
       1417.92960    886.71170     55.71867      0.26177      7.44570      5.95656    285.24420      0.03563
       1418.08200    790.90000     71.38721      0.27695      5.08229      4.06584    291.27610      0.00474
       1418.23440    697.91720     74.97069      0.31225      4.12504      3.30004    282.39190      0.04734
       1418.38680    642.16080     77.11369      0.33976      4.10176      3.28141    281.52800      0.02542
       1418.53920    564.16580     72.96815      0.39020      4.08725      3.26980    282.80330      0.01759
       1418.69160    544.12190     71.35209      0.40530      3.93852      3.15082    283.05870     -0.02373
       1418.84400    563.55350     63.58805      0.39460      3.92712      3.14170    282.51530      0.01675
       1418.99640    614.47400     68.22546      0.35532      4.14175      3.31340    282.24240      0.02888
       1419.14880    650.95630     74.05727      0.33734      4.43080      3.54464    281.60090     -0.02206
       1419.30120    657.57870     75.91904      0.34151      4.53618      3.62895    282.49200      0.01937
       1419.45360    706.62210     68.47128      0.32047      4.64054      3.71243    281.53880      0.00670
       1419.60600    764.50240     57.96708      0.28528      4.60178      3.68142    282.14180      0.02763
       1419.75840    805.00220     55.26220      0.25911      4.41620      3.53296    282.95630      0.03448
       1419.91080    734.63310     55.82409      0.29305      4.31538      3.45231    281.97350      0.00949
       1420.06320    645.12510     63.23683      0.33491      4.16483      3.33187    282.53370      0.00502
       1420.21560    554.57310     66.67960      0.38651      3.88487      3.10790    283.41690      0.03571
       1420.36800    521.00420     69.20941      0.41616      3.60893      2.88714    283.59000      0.04824
       1420.52040    489.89910     70.89578      0.44463      3.40690      2.72552    283.89420     -0.00432
       1420.67280    507.43310     77.85162      0.41229      3.20585      2.56468    285.44830      0.02272
       1420.82520    527.07240     78.02700      0.40427      3.04164      2.43331    285.76940      0.05325
       1420.97760    593.88220     76.62164      0.34402      3.01357      2.41085    286.41940      0.02064
       1421.13000    595.80620     69.41975      0.34442      3.01785      2.41428    286.05720      0.01759
       1421.28240    587.49820     69.80611      0.35905      2.92319      2.33856    286.45250     -0.00363
       1421.43480    558.64670     68.99826      0.40032      2.88422      2.30738    286.88990      0.02901
       1421.58720    567.19130     72.26527      0.38515      2.88001      2.30401    285.87480     -0.00930
       1421.73960    584.80550     67.20638      0.36457      2.79049      2.23239    287.37740     -0.01603
       1421.89200    553.65860     67.69828      0.38759      2.82473      2.25978    286.35670      0.01668
       1422.04440    504.38360     73.60065      0.43601      2.87897      2.30317    286.05810      0.02749
       1422.19680    511.87400     85.65079      0.41177      2.82120      2.25696    286.53440      0.04048
       1422.34920    528.17880     90.46359      0.39393      2.91747      2.33397    285.77620      0.01486
       1422.50160    583.11190     96.54171      0.35329      3.08103      2.46482    284.89060     -0.00504
       1422.65400    591.22940     96.01455      0.35095      3.14821      2.51857    285.89380      0.03641
       1422.80640    598.64830     99.07137      0.36379      3.26628      2.61302    284.10030      0.04761
       1422.95880    600.18160     91.58808      0.37266      3.34113      2.67290    282.98430      0.00672
       1423.11120    624.54910     88.18054      0.35852      3.42804      2.74243    284.66540      0.01514
       1423.26360    643.99380     74.44366      0.34920      3.50562      2.80449    282.41310     -0.01269
       1423.41600    689.58800     67.17147      0.32318      3.11249      2.48999    284.27710      0.01028
       1423.56840    663.62390     56.80772      0.33732      2.64157      2.11326    288.75410     -0.00791
       1423.72080    728.64310     55.54308      0.30010      2.59489      2.07591    286.57380      0.01967
       1423.87320    713.18850     52.13506      0.30777      2.58864      2.07092    287.34930     -0.00139
       1424.02560    727.86190     56.10494      0.28776      2.48467      1.98774    287.51030      0.02181
       1424.17800    689.40940     60.74229      0.31454      2.35954      1.88763    288.64400     -0.00237
       1424.33040    662.05210     65.37978      0.32791      2.23292      1.78633    288.77810      0.00909
       1424.48280    679.00850     64.78278      0.30411      2.34373      1.87499    290.06660     -0.00266
       1424.63520    646.93600     70.71973      0.32309      2.59420      2.07536    286.29870     -0.00872
       1424.78760    629.71360     77.85171      0.33929      2.67229      2.13783    287.78330      0.02172
       1424.94000    594.23000     79.25661      0.35353      2.70881      2.16705    287.05150     -0.00393
       1425.09240    570.37440     74.58430      0.37430      2.57237      2.05789    287.50490     -0.03521
       1425.24480    553.35000     67.03098      0.39116      2.34230      1.87384    290.18580      0.02663
       1425.39720    523.15560     72.65211      0.42251      2.37333      1.89867    287.65010      0.01191
       1425.54960    538.61900     74.37371      0.40886      2.59233      2.07386    289.81250      0.02653
       1425.70200    569.41890     72.58189      0.38259      2.89745      2.31796    285.58970     -0.02553
       1425.85440    582.02590     70.89546      0.36362      2.90503      2.32402    287.10550      0.04411
       1426.00680    601.38060     70.64953      0.34769      2.74053      2.19242    287.98370      0.02035
       1426.15920    577.97450     71.87920      0.35556      2.67558      2.14046    285.98320      0.01638
       1426.31160    588.83230     69.84170      0.33869      2.59406      2.07525    289.84700     -0.00813
       1426.46400    564.84740     78.62418      0.35589      2.73231      2.18585    287.81470      0.02752
