~VERSION INFORMATION 
VERS  .    2.0                                     :CWLS Log ASCII Standard - VERSION 2.0
WRAP  .    NO                                      :One Line per Depth step
PROD  .    Schlumberger Technology Corp.           :LAS Producer
PROG  .    Horizon LASWriter 8.0.95333.3100        :LAS Program name and version
SOURCE.    CARRERA_02: CBL-VDL-NL-GR-Log[4]/Up     :Run&Pass Information
CREA  .    06/11/2018                              :LAS Creation date {MM/DD/YYYY}
#--------------------------------------------------
~WELL INFORMATION 
#MNEM           .UNIT                      DATA            :DESCRIPTION
#----            ------          --------------            -----------------------------
STRT            .m                    454.91400            :START DEPTH
STOP            .m                   2158.89840            :STOP DEPTH
STEP            .m                       0.1524            :STEP
NULL            .                       -999.25            :NULL VALUE
COMP            .                       YPF S.A            :COMPANY
WELL            .                YPF.SC.ECH-212            :WELL NAME
FLD             .                ESTANCIA CHOLITA          :FIELD NAME
RIGN            .                                          :Rig Name
RIGTYP          .                                          :Rig Type
SON             .                 TICKET NUMBER            :Service Order Number
SRVC            .                  Schlumberger            :SERVICE COMPANY
DATE            .                    06/08/2018            :LOG DATE(Composite Date for Composite LAP) (MM/DD/YYYY)
CLAB            .                       County:            :County Label
CNTY            .                    SANTA CRUZ            :COUNTY
SLAB            .                          UWI:            :State/Province Label
STAT            .                AR030000968000            :STATE or PROVINCE
PROV            .                AR030000968000            :STATE or PROVINCE
CTRY            .                     ARGENTINA            :COUNTRY
CONT_REGION     .                                          :Continent Region
SECT            .                       Rigless            :Section
TOWN            .                    4856781.85            :Township
RANG            .                    2459103.27            :Range
API             .                                          :API NUMBER
UWI             .                                          :UNIQUE WELL ID
LUL             .                          ARCS            :Logging Unit Location
LUN             .                          7062            :Logging Unit Number
LOC             .                          ARCS            :FIELD LOCATION
FL1             .                                          :Field Location Line 1
FL2             .                                          :Field Location Line 2
LATI            .deg                 -48.567818            :LATITUDE
LONG            .deg                  24.591030            :LONGITUDE
PDAT            .                            GL            :Local Permanent Datum
LMF             .                            GL            :Logging Measured From
APD             .m                      0.00000            :Elevation of Depth Reference (LMF) Above Permanent Datum
EPD             .m                    554.51000            :Elevation of Permanent Datum (PDAT) above Mean Sea Level
EKB             .m                      0.00000            :Elevation of Kelly Bushing Above Permanent Datum
EDF             .m                      0.00000            :Elevation of Drill Floor Above Permanent Datum
EGL             .m                      0.00000            :Elevation of Ground Level Above Permanent Datum
ECF             .m                      -999.25            :Elevation of Casing Flange above Permanent Datum
#--------------------------------------------------
~CURVE INFORMATION
#MNEM           .UNIT                  API CODE            :DESCRIPTION
#----            ------          --------------            -----------------------------
DEPT            .m                                         :                                                        Depth Index
CBLF            .mV                                        :        (DSLT-H)                (6in)                   CBL Amplitude (Fluid Compensated)
TT              .us                                        :        (DSLT-H)                (6in)                   Transit Time for CBL
CTEM            .degC                                      :        (HGNS-H)                (6in)                   Cartridge Temperature
CFTC            .1/s                                       :        (HGNS-H)                (2in)                   Corrected Far Thermal Count Rate
CCL             .                                          :        (CAL-YA)                (1in)                   Casing Collar Locator Amplitude
TENS            .lbf                                       :        (WLWorkflow)            (6in)                   Cable Tension
DEPTH           .m                                         :        (WLWorkflow)            (6in)                   Depth Index
SDEV            .deg                                       :        (HGNS-H)                (6in)                   Sonde Deviation
TNPH            .V/V                                       :        (HGNS-H)                (6in)                   Thermal Neutron Porosity (Ratio Method) in Selected Lithology
GR              .gAPI                                      :        (HGNS-H)                (6in)                   Gamma Ray
#-------------------------------------------------------------
#            DEPT         CBLF           TT         CTEM         CFTC          CCL         TENS        DEPTH         SDEV         TNPH           GR 
#                     (DSLT-H)     (DSLT-H)     (HGNS-H)     (HGNS-H)     (CAL-YA)  (WLWorkflo)  (WLWorkflo)     (HGNS-H)     (HGNS-H)     (HGNS-H) 
#                                                                                                                                                   
#                        (6in)        (6in)        (6in)        (2in)        (1in)        (6in)        (6in)        (6in)        (6in)        (6in) 
~ASCII
# ...
       1133.85600      2.72775    273.67210     73.43181    613.55820      0.06251   1511.33342   1133.85330      -999.25      0.32340     85.02292
       1134.00840      3.24586    272.60310     73.43181    679.04580      0.10228   1515.62503   1134.00602      -999.25      0.28908     90.67132
       1134.16080      3.77468    266.74990     73.43181    696.70150      0.00753   1504.55566   1134.16064      -999.25      0.28703     90.99304
       1134.31320      4.01972    271.11660     73.43181    710.46040      0.03017   1506.62502   1134.31177      -999.25      0.28643     97.95879
       1134.46560      4.17959    269.86540     73.43181    700.08140      0.12427   1516.55551   1134.46290      -999.25      0.30832     99.13007
       1134.61800      4.46049    269.47800     73.43181    716.16840      0.10883   1514.55561   1134.62292      -999.25      0.31306    105.18850
       1134.77040      4.62303    268.08040     73.43181    796.07420      0.09288   1512.74994   1134.77405      -999.25      0.26674     99.56904
       1134.92280      4.83346    271.22560     73.43181    845.99820      0.09367   1508.33335   1134.92518      -999.25      0.24787     93.53961
       1135.07520      5.57698    268.62360     73.43181    894.40280      0.07580   1520.75000   1135.07504      -999.25      0.23553     86.95470
       1135.22760      7.02952    269.66790     73.43181    905.56320      0.10839   1525.11106   1135.22800      -999.25      0.23933     90.46708
       1135.38000      9.11263    269.15930     73.43181    937.22440     -0.05091   1514.50008   1135.38143      -999.25      0.23095     95.73496
       1135.53240     10.56241    268.91430     73.43181    978.04440      0.10163   1516.44445   1135.53478      -999.25      0.22592     96.87646
       1135.68480     10.56830    268.25240     73.43181    976.25930      0.19774   1525.99996   1135.68591      -999.25      0.23368     87.27651
       1135.83720     10.00259    268.01520     73.43181    970.02370      0.14198   1504.55566   1135.83930      -999.25      0.22471     75.42338
       1135.98960      9.04200    268.94460     73.43181    877.42000      0.08089   1501.87504   1135.99071      -999.25      0.24421     64.41837
       1136.14200      7.62531    268.59030     73.71143    737.65880     -0.02160   1498.00000   1136.14156      -999.25      0.28180     64.18429
       1136.29440      6.44098    268.37700     73.71143    572.78310     -0.02734   1511.74999   1136.29170      -999.25      0.36972     72.87702
       1136.44680      5.51097    267.88890     73.71143    476.69210      0.08497   1516.88890   1136.44410      -999.25      0.42736     81.77449
       1136.59920      4.75426    269.13190     73.71143    465.61870      0.12176   1500.12512   1136.59618      -999.25      0.42840     90.70102
       1136.75160      4.48173    268.37850     73.71143    477.81290      0.10420   1508.22229   1136.75003      -999.25      0.42526     88.30064
       1136.90400      4.86350    269.59300     73.71143    507.62100     -0.02074   1516.62498   1136.90257      -999.25      0.41273     84.52517
       1137.05640      5.66428    267.97240     73.71143    542.38230      0.10708   1521.88888   1137.05370      -999.25      0.38802     79.34491
       1137.20880      5.95306    268.11480     73.71143    581.38370      0.07614   1510.66664   1137.21372      -999.25      0.35022     77.26729
       1137.36120      5.51876    267.81760     73.71143    592.09230      0.07410   1502.62500   1137.36549      -999.25      0.35015     79.87207
       1137.51360      5.06231    267.96360     73.71143    599.77750     -0.01609   1516.37499   1137.50963      -999.25      0.34525     76.62324
       1137.66600      5.06578    268.62380     73.71143    607.09280      0.04953   1514.44433   1137.66499      -999.25      0.34286     78.70104
       1137.81840      5.52092    268.70850     73.71143    644.58280      0.15894   1502.00003   1137.81824      -999.25      0.32686     76.62327
       1137.97080      6.56798    268.63290     73.71143    696.33760      0.05853   1509.55563   1137.97290      -999.25      0.31190     75.65731
       1138.12320      8.03458    268.80550     73.71143    749.69890     -0.00280   1505.62507   1138.12431      -999.25      0.28812     75.18931
       1138.27560      9.98345    269.28620     73.71143    821.90880     -0.04552   1509.22224   1138.27544      -999.25      0.26090     82.82803
       1138.42800     14.08594    269.49300     73.71143    866.09700      0.09956   1505.25009   1138.42657      -999.25      0.24803     91.02328
       1138.58040     19.32295    270.34380     73.71143    933.78520      0.10098   1510.77770   1138.57770      -999.25      0.22472     86.10619
       1138.73280     22.18880    269.96660     73.71143    971.15090      0.12896   1512.22232   1138.73659      -999.25      0.21307     73.46225
       1138.88520     21.97392    269.68020     73.71143    931.16060      0.08224   1517.24994   1138.88885      -999.25      0.21601     70.18423
       1139.03760     19.64967    268.90730     73.71143    838.41910     -0.01012   1518.77775   1139.04167      -999.25      0.24963     71.38400
       1139.19000     16.50988    268.70760     73.71143    702.79280      0.10869   1516.74997   1139.19460      -999.25      0.31089     84.78911
       1139.34240     14.17203    268.85260     73.71143    681.67890      0.09186   1527.22224   1139.34732      -999.25      0.32420     83.38426
       1139.49480     13.07015    268.86450     73.71143    740.52870      0.05676   1529.50001   1139.49845      -999.25      0.29087     80.31115
       1139.64720     12.89169    268.33580     73.71143    870.37290      0.10113   1518.22224   1139.64789      -999.25      0.24483     67.43324
       1139.79960     14.13488    268.78660     73.71143   1022.56700      0.12786   1518.62510   1139.79817      -999.25      0.20711     60.64302
       1139.95200     16.29899    269.11760     73.71143   1126.72600      0.10680   1515.11111   1139.94732      -999.25      0.18770     55.72599
       1140.10440     18.77517    268.91720     73.71143   1139.89200      0.03396   1519.22219   1140.10650      -999.25      0.18490     50.19425
       1140.25680     21.97827    269.21270     73.71143   1066.57900      0.04062   1518.87509   1140.25537      -999.25      0.19727     52.53547
       1140.40920     24.71980    269.09160     73.71143    955.43160      0.06245   1506.55556   1140.40650      -999.25      0.22661     62.36972
       1140.56160     26.15442    268.67100     73.71143    902.95930      0.13493   1522.55566   1140.56708      -999.25      0.24829     72.81828
       1140.71400     26.81083    268.88900     73.71143    981.75180      0.07437   1524.00006   1140.71638      -999.25      0.24240     70.71100
       1140.86640     27.25758    269.33590     73.71143   1227.75300      0.06670   1510.88898   1140.86455      -999.25      0.19417     63.86218
       1141.01880     26.67270    268.93250     73.71143   1529.58900      0.06272   1527.00013   1141.02203      -999.25      0.15194     57.07221
       1141.17120     24.35894    269.19970     73.71143   1681.24500     -0.00161   1546.22220   1141.17838      -999.25      0.13717     50.98470
       1141.32360     22.15536    269.06680     73.71143   1504.71900      0.06805   1528.75005   1141.32598      -999.25      0.15471     55.25770
       1141.47600     21.73150    269.54470     73.71143   1164.88200      0.04396   1532.77772   1141.47386      -999.25      0.19982     58.97452
       1141.62840     23.25846    269.01890     73.71143    808.46260      0.08268   1525.44446   1141.63022      -999.25      0.28247     73.25700
       1141.78080     24.28436    268.84150     73.71143    590.77530      0.21281   1521.99993   1141.77937      -999.25      0.36211     71.14996
       1141.93320     22.33770    268.16050     73.71143    476.38900      0.05066   1527.33330   1141.92852      -999.25      0.40216     68.51572
       1142.08560     17.98592    268.09420     73.71143    412.22600     -0.05945   1526.88885   1142.08572      -999.25      0.46134     62.42796
