~VERSION INFORMATION 
VERS  .    2.0                                     :CWLS Log ASCII Standard - VERSION 2.0
WRAP  .    NO                                      :One Line per Depth step
PROD  .    Schlumberger Technology Corp.           :LAS Producer
PROG  .    Horizon LASWriter 8.0.95333.3100        :LAS Program name and version
SOURCE.    CARRERA_02: CBL-VDL-NL-GR-Log[4]/Up     :Run&Pass Information
CREA  .    06/11/2018                              :LAS Creation date {MM/DD/YYYY}
#--------------------------------------------------
~WELL INFORMATION 
#MNEM           .UNIT                      DATA            :DESCRIPTION
#----            ------          --------------            -----------------------------
STRT            .m                    454.91400            :START DEPTH
STOP            .m                   2158.89840            :STOP DEPTH
STEP            .m                       0.1524            :STEP
NULL            .                       -999.25            :NULL VALUE
COMP            .                       YPF S.A            :COMPANY
WELL            .                YPF.SC.ECH-212            :WELL NAME
FLD             .                ESTANCIA CHOLITA          :FIELD NAME
RIGN            .                                          :Rig Name
RIGTYP          .                                          :Rig Type
SON             .                 TICKET NUMBER            :Service Order Number
SRVC            .                  Schlumberger            :SERVICE COMPANY
DATE            .                    06/08/2018            :LOG DATE(Composite Date for Composite LAP) (MM/DD/YYYY)
CLAB            .                       County:            :County Label
CNTY            .                    SANTA CRUZ            :COUNTY
SLAB            .                          UWI:            :State/Province Label
STAT            .                AR030000968000            :STATE or PROVINCE
PROV            .                AR030000968000            :STATE or PROVINCE
CTRY            .                     ARGENTINA            :COUNTRY
CONT_REGION     .                                          :Continent Region
SECT            .                       Rigless            :Section
TOWN            .                    4856781.85            :Township
RANG            .                    2459103.27            :Range
API             .                                          :API NUMBER
UWI             .                                          :UNIQUE WELL ID
LUL             .                          ARCS            :Logging Unit Location
LUN             .                          7062            :Logging Unit Number
LOC             .                          ARCS            :FIELD LOCATION
FL1             .                                          :Field Location Line 1
FL2             .                                          :Field Location Line 2
LATI            .deg                 -48.567818            :LATITUDE
LONG            .deg                  24.591030            :LONGITUDE
PDAT            .                            GL            :Local Permanent Datum
LMF             .                            GL            :Logging Measured From
APD             .m                      0.00000            :Elevation of Depth Reference (LMF) Above Permanent Datum
EPD             .m                    554.51000            :Elevation of Permanent Datum (PDAT) above Mean Sea Level
EKB             .m                      0.00000            :Elevation of Kelly Bushing Above Permanent Datum
EDF             .m                      0.00000            :Elevation of Drill Floor Above Permanent Datum
EGL             .m                      0.00000            :Elevation of Ground Level Above Permanent Datum
ECF             .m                      -999.25            :Elevation of Casing Flange above Permanent Datum
#--------------------------------------------------
~CURVE INFORMATION
#MNEM           .UNIT                  API CODE            :DESCRIPTION
#----            ------          --------------            -----------------------------
DEPT            .m                                         :                                                        Depth Index
CBLF            .mV                                        :        (DSLT-H)                (6in)                   CBL Amplitude (Fluid Compensated)
TT              .us                                        :        (DSLT-H)                (6in)                   Transit Time for CBL
CTEM            .degC                                      :        (HGNS-H)                (6in)                   Cartridge Temperature
CFTC            .1/s                                       :        (HGNS-H)                (2in)                   Corrected Far Thermal Count Rate
CCL             .                                          :        (CAL-YA)                (1in)                   Casing Collar Locator Amplitude
TENS            .lbf                                       :        (WLWorkflow)            (6in)                   Cable Tension
DEPTH           .m                                         :        (WLWorkflow)            (6in)                   Depth Index
SDEV            .deg                                       :        (HGNS-H)                (6in)                   Sonde Deviation
TNPH            .V/V                                       :        (HGNS-H)                (6in)                   Thermal Neutron Porosity (Ratio Method) in Selected Lithology
GR              .gAPI                                      :        (HGNS-H)                (6in)                   Gamma Ray
#-------------------------------------------------------------
#            DEPT         CBLF           TT         CTEM         CFTC          CCL         TENS        DEPTH         SDEV         TNPH           GR 
#                     (DSLT-H)     (DSLT-H)     (HGNS-H)     (HGNS-H)     (CAL-YA)  (WLWorkflo)  (WLWorkflo)     (HGNS-H)     (HGNS-H)     (HGNS-H) 
#                                                                                                                                                   
#                        (6in)        (6in)        (6in)        (2in)        (1in)        (6in)        (6in)        (6in)        (6in)        (6in) 
~ASCII
# ...
       1586.48400      2.27069    274.99450     92.44569    832.55930      0.06304   2012.00002   1586.48102      -999.25      0.27756     79.72677
       1586.63640      2.40852    273.12600     92.44569    798.37850      0.05357   1998.66683   1586.63737      -999.25      0.28570     87.07289
       1586.78880      2.58103    272.98270     92.44569    799.88310      0.06924   1975.50004   1586.78991      -999.25      0.28916     93.16087
       1586.94120      2.72299    272.56340     92.44569    819.85680      0.13740   1960.55542   1586.94076      -999.25      0.27837     91.84358
       1587.09360      3.17848    273.22990     92.44569    841.34140      0.14713   1981.55550   1587.09683      -999.25      0.27191     86.22400
       1587.24600      4.05856    271.02570     92.44569    867.53060     -0.09888   1993.00007   1587.24648      -999.25      0.26733     78.64358
       1587.39840      5.09712    270.13560     92.44569    904.08840     -0.05518   1982.55567   1587.39514      -999.25      0.25309     73.43382
       1587.55080      6.27070    269.91080     92.44569    929.51820      0.20313   1992.88902   1587.55092      -999.25      0.23942     79.05372
       1587.70320      7.23724    270.21710     92.44569    908.35880      0.03019   1990.55572   1587.70784      -999.25      0.25324     80.89698
       1587.85560      6.99073    269.66930     92.44569    886.43260      0.07204   1974.66668   1587.86306      -999.25      0.26274     81.83338
       1588.00800      5.66941    270.53280     92.44569    896.42820     -0.03940   1976.00024   1588.00879      -999.25      0.26507     79.72613
       1588.16040      4.45039    270.72420     92.44569    903.71670      0.07194   1982.22228   1588.15826      -999.25      0.26838     72.81937
       1588.31280      3.58771    272.31670     92.44569    914.11220      0.12624   1994.33319   1588.31518      -999.25      0.27089     77.88250
       1588.46520      2.76706    273.47290     92.44569    937.19240      0.14624   1990.00000   1588.47012      -999.25      0.26144     74.60403
       1588.61760      2.13497    275.53310     92.44569    960.71740     -0.06405   1971.62524   1588.61903      -999.25      0.25800     83.03302
       1588.77000      2.13343    276.37210     92.72531    971.89810      0.09748   1970.88876   1588.76758      -999.25      0.25054     74.22386
       1588.92240      2.46968    273.02520     92.44569   1001.27400     -0.06562   1986.22208   1588.92252      -999.25      0.24378     71.18023
       1589.07480      2.65549    274.06400     92.72531   1023.21600      0.08831   1989.77789   1589.07746      -999.25      0.23827     67.55085
       1589.22720      3.08433    272.67690     92.72531   1036.27800      0.20828   1986.99992   1589.22641      -999.25      0.23445     68.95596
       1589.37960      3.94081    271.62590     92.72531    968.42610     -0.01976   1979.55560   1589.37521      -999.25      0.25519     71.29713
       1589.53200      4.92437    271.07010     92.72531    969.18710      0.17856   1978.11120   1589.53156      -999.25      0.25669     69.77586
       1589.68440      5.55088    270.81680     92.72531    946.10110      0.11103   1985.00002   1589.68791      -999.25      0.25409     68.83885
       1589.83680      5.42563    270.17410     92.72531    986.20420     -0.04204   1977.99992   1589.84398      -999.25      0.23481     66.49752
       1589.98920      4.97481    269.64020     92.72531    960.80870      0.04598   1986.37495   1589.99063      -999.25      0.24041     69.30678
       1590.14160      4.63042    269.81660     92.72531    978.56550     -0.07066   2001.77796   1590.13862      -999.25      0.24075     71.41433
       1590.29400      4.30962    270.12000     92.72531    953.07370      0.02094   1992.44434   1590.29497      -999.25      0.25106     69.33608
       1590.44640      3.92147    270.90360     92.72531    977.72500      0.16688   1996.87510   1590.44751      -999.25      0.24856     66.99488
       1590.59880      3.57658    272.58020     92.72531    977.72640      0.08026   1993.55558   1590.59610      -999.25      0.24680     64.41904
       1590.75120      3.52080    273.01430     92.72531    999.25920     -0.01533   1999.00000   1590.75273      -999.25      0.23921     68.83858
       1590.90360      3.64690    271.17750     92.72531    963.00310     -0.08241   1991.88884   1590.90852      -999.25      0.25672     70.00939
       1591.05600      3.80267    272.88830     92.72531    984.91700      0.03841   1984.37483   1591.05679      -999.25      0.24563     76.79980
       1591.20840      4.13615    271.46320     92.72531    973.43190      0.06987   1986.11103   1591.20260      -999.25      0.25197     75.16082
       1591.36080      4.62898    270.60750     92.72531    987.39140      0.14725   1994.22213   1591.35612      -999.25      0.24238     77.03372
       1591.51320      5.12287    270.17580     92.72531    912.32960      0.09109   1994.00002   1591.51219      -999.25      0.27719     72.20425
       1591.66560      5.70207    270.80640     92.72531    896.09910      0.15956   2002.77791   1591.67080      -999.25      0.28595     79.93128
       1591.81800      6.51562    269.33210     92.72531    905.23120      0.05366   1998.87500   1591.81943      -999.25      0.28110     82.74097
       1591.97040      7.10083    269.75930     92.72531    929.09820      0.11971   2008.22234   1591.96826      -999.25      0.26718     86.39954
       1592.12280      7.21691    270.55170     92.72531    922.93370      0.08355   2002.22218   1592.12405      -999.25      0.26698     78.90664
       1592.27520      7.38570    270.10700     92.72531    916.01130      0.17587   2006.77794   1592.28181      -999.25      0.26830     74.45805
       1592.42760      7.68639    269.92280     92.72531    964.53700      0.13550   2006.00010   1592.43157      -999.25      0.24483     68.95559
       1592.58000      7.98202    269.81060     92.72531   1003.82700      0.15292   2004.11103   1592.58097      -999.25      0.22692     72.23364
       1592.73240      8.39275    269.67750     92.72531   1006.15800      0.12491   1989.75023   1592.72843      -999.25      0.23251     77.15075
       1592.88480      9.16602    270.44020     92.72531    995.41530      0.09999   2002.77791   1592.88238      -999.25      0.24224     81.48259
       1593.03720     10.26280    269.62780     92.72531    995.05020      0.14417   1998.88894   1593.04156      -999.25      0.24662     84.29251
       1593.18960     10.65779    269.98040     92.72531    991.45230     -0.00166   1991.75013   1593.19198      -999.25      0.24508     84.99481
       1593.34200      9.81729    270.07850     92.72531    950.56620      0.00041   1996.33331   1593.34184      -999.25      0.26186     88.03854
       1593.49440      8.83158    269.64390     92.72531    932.46090      0.13748   2003.62499   1593.49265      -999.25      0.26420     93.68749
       1593.64680      8.44821    269.43290     92.72531    951.50920      0.13950   2014.11121   1593.64212      -999.25      0.25745     95.32642
       1593.79920      8.61006    270.00380     92.72531   1016.26300      0.10568   2016.00005   1593.80073      -999.25      0.23799    103.28780
       1593.95160      9.46870    270.50730     92.72531   1064.13000      0.19598   2011.75004   1593.95144      -999.25      0.22687     97.87285
       1594.10400     10.82428    270.27910     92.72531   1105.41300      0.04185   2007.33322   1594.10384      -999.25      0.21989     95.29744
       1594.25640     13.12909    270.17260     92.72531   1079.18800      0.12029   2010.12489   1594.25497      -999.25      0.22602     93.89204
       1594.40880     17.70191    271.17390     92.72531   1060.60600      0.05129   2017.33339   1594.40610      -999.25      0.22525    102.32150
       1594.56120     24.81836    271.31690     92.72531   1030.96800      0.06895   2014.00015   1594.56527      -999.25      0.22772    111.92140
       1594.71360     32.99215    271.33090     92.72531   1066.40900      0.19455   1992.62509   1594.71693      -999.25      0.22382    113.56070
