~VERSION INFORMATION 
VERS  .    2.0                                     :CWLS Log ASCII Standard - VERSION 2.0
WRAP  .    NO                                      :One Line per Depth step
PROD  .    Schlumberger Technology Corp.           :LAS Producer
PROG  .    Horizon LASWriter 8.0.95333.3100        :LAS Program name and version
SOURCE.    CARRERA_02: CBL-VDL-NL-GR-Log[4]/Up     :Run&Pass Information
CREA  .    06/11/2018                              :LAS Creation date {MM/DD/YYYY}
#--------------------------------------------------
~WELL INFORMATION 
#MNEM           .UNIT                      DATA            :DESCRIPTION
#----            ------          --------------            -----------------------------
STRT            .m                    454.91400            :START DEPTH
STOP            .m                   2158.89840            :STOP DEPTH
STEP            .m                       0.1524            :STEP
NULL            .                       -999.25            :NULL VALUE
COMP            .                       YPF S.A            :COMPANY
WELL            .                YPF.SC.ECH-212            :WELL NAME
FLD             .                ESTANCIA CHOLITA          :FIELD NAME
RIGN            .                                          :Rig Name
RIGTYP          .                                          :Rig Type
SON             .                 TICKET NUMBER            :Service Order Number
SRVC            .                  Schlumberger            :SERVICE COMPANY
DATE            .                    06/08/2018            :LOG DATE(Composite Date for Composite LAP) (MM/DD/YYYY)
CLAB            .                       County:            :County Label
CNTY            .                    SANTA CRUZ            :COUNTY
SLAB            .                          UWI:            :State/Province Label
STAT            .                AR030000968000            :STATE or PROVINCE
PROV            .                AR030000968000            :STATE or PROVINCE
CTRY            .                     ARGENTINA            :COUNTRY
CONT_REGION     .                                          :Continent Region
SECT            .                       Rigless            :Section
TOWN            .                    4856781.85            :Township
RANG            .                    2459103.27            :Range
API             .                                          :API NUMBER
UWI             .                                          :UNIQUE WELL ID
LUL             .                          ARCS            :Logging Unit Location
LUN             .                          7062            :Logging Unit Number
LOC             .                          ARCS            :FIELD LOCATION
FL1             .                                          :Field Location Line 1
FL2             .                                          :Field Location Line 2
LATI            .deg                 -48.567818            :LATITUDE
LONG            .deg                  24.591030            :LONGITUDE
PDAT            .                            GL            :Local Permanent Datum
LMF             .                            GL            :Logging Measured From
APD             .m                      0.00000            :Elevation of Depth Reference (LMF) Above Permanent Datum
EPD             .m                    554.51000            :Elevation of Permanent Datum (PDAT) above Mean Sea Level
EKB             .m                      0.00000            :Elevation of Kelly Bushing Above Permanent Datum
EDF             .m                      0.00000            :Elevation of Drill Floor Above Permanent Datum
EGL             .m                      0.00000            :Elevation of Ground Level Above Permanent Datum
ECF             .m                      -999.25            :Elevation of Casing Flange above Permanent Datum
#--------------------------------------------------
~CURVE INFORMATION
#MNEM           .UNIT                  API CODE            :DESCRIPTION
#----            ------          --------------            -----------------------------
DEPT            .m                                         :                                                        Depth Index
CBLF            .mV                                        :        (DSLT-H)                (6in)                   CBL Amplitude (Fluid Compensated)
TT              .us                                        :        (DSLT-H)                (6in)                   Transit Time for CBL
CTEM            .degC                                      :        (HGNS-H)                (6in)                   Cartridge Temperature
CFTC            .1/s                                       :        (HGNS-H)                (2in)                   Corrected Far Thermal Count Rate
CCL             .                                          :        (CAL-YA)                (1in)                   Casing Collar Locator Amplitude
TENS            .lbf                                       :        (WLWorkflow)            (6in)                   Cable Tension
DEPTH           .m                                         :        (WLWorkflow)            (6in)                   Depth Index
SDEV            .deg                                       :        (HGNS-H)                (6in)                   Sonde Deviation
TNPH            .V/V                                       :        (HGNS-H)                (6in)                   Thermal Neutron Porosity (Ratio Method) in Selected Lithology
GR              .gAPI                                      :        (HGNS-H)                (6in)                   Gamma Ray
#-------------------------------------------------------------
#            DEPT         CBLF           TT         CTEM         CFTC          CCL         TENS        DEPTH         SDEV         TNPH           GR 
#                     (DSLT-H)     (DSLT-H)     (HGNS-H)     (HGNS-H)     (CAL-YA)  (WLWorkflo)  (WLWorkflo)     (HGNS-H)     (HGNS-H)     (HGNS-H) 
#                                                                                                                                                   
#                        (6in)        (6in)        (6in)        (2in)        (1in)        (6in)        (6in)        (6in)        (6in)        (6in) 
~ASCII
# ...
        563.88000     23.88371    269.89990     47.14790    519.45810     -0.11125    976.55566    563.87786      -999.25      0.37549     75.38306
        564.03240     27.11972    269.90320     47.14790    533.21620      0.05481    977.33350    564.03252      -999.25      0.37844     73.70491
        564.18480     30.69844    269.77920     47.14790    540.09060      0.16565    974.99998    564.18774      -999.25      0.36843     65.76701
        564.33720     34.49606    269.87140     47.14790    504.17590      0.07846    975.11104    564.34297      -999.25      0.39501     60.95575
        564.48960     36.14157    270.23750     47.14790    491.18700      0.00991    969.00006    564.49071      -999.25      0.38286     56.95089
        564.64200     33.86680    270.07080     47.42752    449.94610      0.07694    977.44456    564.63845      -999.25      0.40791     64.88900
        564.79440     29.25954    269.89940     47.14790    422.49340      0.09441    978.77790    564.79396      -999.25      0.41764     72.82761
        564.94680     25.11054    269.58300     47.42752    408.75550      0.11028    976.22227    564.94862      -999.25      0.42113     84.67461
        565.09920     22.66835    269.71780     47.42752    403.41120      0.04008    980.66674    565.10130      -999.25      0.42078     82.75025
        565.25160     21.46636    269.58790     47.42752    390.45060     -0.00332    979.99996    565.25511      -999.25      0.43791     78.66042
        565.40400     21.23154    269.49450     47.42752    354.29280      0.14307    979.22212    565.41090      -999.25      0.50184     74.81161
        565.55640     20.64141    269.72060     47.42752    336.01400     -0.09573    985.74990    565.55942      -999.25      0.52231     73.60889
        565.70880     22.29490    269.11820     47.42752    342.10990      0.00814    982.00008    565.70666      -999.25      0.51278     73.36847
        565.86120     23.79164    276.36690     47.42752    357.10930     -0.17924    977.66667    565.86189      -999.25      0.47182     69.03886
        566.01360     18.80595    273.54400     47.42752    359.95630      0.09187    984.11104    566.01739      -999.25      0.46290     69.27914
        566.16600     15.07661    273.60110     47.42752    356.89800     -0.39276    978.33345    566.17092      -999.25      0.45865     75.53368
        566.31840     15.02027    273.85710     47.42752    336.93220      3.81202    981.44458    566.32530      -999.25      0.49948     74.57122
        566.47080     14.19266    273.44320     47.42752    312.95690      0.10642    984.75017    566.47128      -999.25      0.54587     76.49560
        566.62320     17.36222    273.06800     47.42752    310.70200      0.15863    976.22227    566.61852      -999.25      0.52625     69.21880
        566.77560     22.75834    278.49910     47.42752    326.68400      0.11048    978.22217    566.77205      -999.25      0.49052     70.90268
        566.92800     22.82869    270.42030     47.42752    356.94020      0.09624    973.22219    566.92699      -999.25      0.45989     65.61069
        567.08040     21.27173    268.99120     47.42752    365.29940     -0.03876    979.55551    567.08250      -999.25      0.47674     69.03843
        567.23280     21.46001    269.34650     47.42752    375.18960      0.11753    982.77770    567.23998      -999.25      0.48820     75.29291
        567.38520     21.63349    269.13880     47.42752    399.58560      0.22143    975.24997    567.38726      -999.25      0.46680     80.34461
        567.53760     22.19915    268.70150     47.42752    404.15640      0.17385    983.99998    567.53546      -999.25      0.46714     81.54743
        567.69000     23.17395    268.83730     47.42752    408.72740      0.02968    975.44443    567.69097      -999.25      0.45851     74.33066
        567.84240     23.94258    268.82460     47.42752    382.80570      0.10542    987.11112    567.84760      -999.25      0.49150     73.12784
        567.99480     24.00676    268.88520     47.42752    391.97670      0.09201    982.00008    568.00113      -999.25      0.45193     72.01531
        568.14720     23.58533    269.04530     47.42752    391.98040      0.04161    974.77787    568.15551      -999.25      0.44994     75.86417
        568.29960     23.21623    268.92670     47.42752    417.15560      0.11328    992.62500    568.30198      -999.25      0.41206     76.82639
        568.45200     22.99671    269.11410     47.42752    420.19300      0.09792    972.33330    568.44902      -999.25      0.42202     78.42030
        568.60440     22.25053    269.19690     47.42752    429.37000      0.02304    981.55564    568.60537      -999.25      0.41805     73.60921
        568.75680     21.24289    268.97130     47.42752    423.24790      0.23532    988.33340    568.75890      -999.25      0.43759     71.20376
        568.90920     20.87210    268.96680     47.42752    430.89520      0.06868    966.88888    568.91356      -999.25      0.42205     66.63301
        569.06160     20.82163    269.10890     47.42752    441.57570      0.18618    982.88875    569.06398      -999.25      0.41783     72.16576
        569.21400     20.44427    269.24600     47.42752    464.51950      0.17484    988.55551    569.21723      -999.25      0.39556     72.16561
        569.36640     19.87922    269.28500     47.42752    475.17760      0.02395    972.88880    569.37160      -999.25      0.39979     76.01458
        569.51880     19.93943    269.26030     47.42752    501.88580      0.07920    984.66677    569.52541      -999.25      0.37809     77.21724
        569.67120     20.79045    269.38580     47.42752    494.97490      0.05009    973.66664    569.67753      -999.25      0.39201     82.05840
        569.82360     21.48957    269.55730     47.42752    474.01220      0.06812    978.66662    569.83134      -999.25      0.41104     81.81781
        569.97600     21.89547    269.22130     47.42752    451.10470      0.16449    982.11114    569.98431      -999.25      0.43292     79.65301
        570.12840     22.78466    269.26320     47.70713    422.89100     -0.00731    971.44440    570.13727      -999.25      0.44764     75.53353
        570.28080     24.08530    269.30210     47.42752    429.37880      0.06349    981.77797    570.28995      -999.25      0.42355     72.73704
        570.43320     25.18450    269.56170     47.70713    426.35240     -0.04145    974.66659    570.44179      -999.25      0.42066     71.29366
        570.58560     25.74874    269.68960     47.70713    416.43260      0.13206    969.50003    570.58703      -999.25      0.43392     69.12874
        570.73800     25.29100    269.61730     47.70713    401.57380      0.11186    984.77782    570.73220      -999.25      0.46488     70.96295
        570.89040     24.02323    269.46610     47.70713    393.94350      0.04981    977.66667    570.88488      -999.25      0.49037     68.07621
        571.04280     23.23010    269.64900     47.70713    408.41930      0.03739    983.44448    571.03615      -999.25      0.47417     70.00051
        571.19520     23.33636    269.54200     47.70713    423.26780      0.05463    997.99996    571.19024      -999.25      0.44755     69.76012
        571.34760     23.61924    269.46570     47.70713    453.04820      0.06140    989.88885    571.34462      -999.25      0.40749     73.60914
        571.50000     23.77500    269.42200     47.70713    461.06260      0.11022    989.11124    571.49871      -999.25      0.40255     73.09785
        571.65240     24.13881    269.22850     47.70713    453.42140      0.05892    986.55561    571.65111      -999.25      0.41218     76.22501
        571.80480     25.14788    269.62060     47.70713    454.16180      0.07027    984.11104    571.80323      -999.25      0.41271     76.22498
        571.95720     27.10541    269.77000     47.70713    474.43460     -0.03434    987.33323    571.95619      -999.25      0.39118     73.78961
        572.10960     29.48038    269.77020     47.70713    507.64130      0.02774    989.55546    572.10859      -999.25      0.35484     72.82738
