~VERSION INFORMATION 
VERS  .    2.0                                     :CWLS Log ASCII Standard - VERSION 2.0
WRAP  .    NO                                      :One Line per Depth step
PROD  .    Schlumberger Technology Corp.           :LAS Producer
PROG  .    Horizon LASWriter 8.0.95333.3100        :LAS Program name and version
SOURCE.    CARRERA_02: CBL-VDL-NL-GR-Log[4]/Up     :Run&Pass Information
CREA  .    06/11/2018                              :LAS Creation date {MM/DD/YYYY}
#--------------------------------------------------
~WELL INFORMATION 
#MNEM           .UNIT                      DATA            :DESCRIPTION
#----            ------          --------------            -----------------------------
STRT            .m                    454.91400            :START DEPTH
STOP            .m                   2158.89840            :STOP DEPTH
STEP            .m                       0.1524            :STEP
NULL            .                       -999.25            :NULL VALUE
COMP            .                       YPF S.A            :COMPANY
WELL            .                YPF.SC.ECH-212            :WELL NAME
FLD             .                ESTANCIA CHOLITA          :FIELD NAME
RIGN            .                                          :Rig Name
RIGTYP          .                                          :Rig Type
SON             .                 TICKET NUMBER            :Service Order Number
SRVC            .                  Schlumberger            :SERVICE COMPANY
DATE            .                    06/08/2018            :LOG DATE(Composite Date for Composite LAP) (MM/DD/YYYY)
CLAB            .                       County:            :County Label
CNTY            .                    SANTA CRUZ            :COUNTY
SLAB            .                          UWI:            :State/Province Label
STAT            .                AR030000968000            :STATE or PROVINCE
PROV            .                AR030000968000            :STATE or PROVINCE
CTRY            .                     ARGENTINA            :COUNTRY
CONT_REGION     .                                          :Continent Region
SECT            .                       Rigless            :Section
TOWN            .                    4856781.85            :Township
RANG            .                    2459103.27            :Range
API             .                                          :API NUMBER
UWI             .                                          :UNIQUE WELL ID
LUL             .                          ARCS            :Logging Unit Location
LUN             .                          7062            :Logging Unit Number
LOC             .                          ARCS            :FIELD LOCATION
FL1             .                                          :Field Location Line 1
FL2             .                                          :Field Location Line 2
LATI            .deg                 -48.567818            :LATITUDE
LONG            .deg                  24.591030            :LONGITUDE
PDAT            .                            GL            :Local Permanent Datum
LMF             .                            GL            :Logging Measured From
APD             .m                      0.00000            :Elevation of Depth Reference (LMF) Above Permanent Datum
EPD             .m                    554.51000            :Elevation of Permanent Datum (PDAT) above Mean Sea Level
EKB             .m                      0.00000            :Elevation of Kelly Bushing Above Permanent Datum
EDF             .m                      0.00000            :Elevation of Drill Floor Above Permanent Datum
EGL             .m                      0.00000            :Elevation of Ground Level Above Permanent Datum
ECF             .m                      -999.25            :Elevation of Casing Flange above Permanent Datum
#--------------------------------------------------
~CURVE INFORMATION
#MNEM           .UNIT                  API CODE            :DESCRIPTION
#----            ------          --------------            -----------------------------
DEPT            .m                                         :                                                        Depth Index
CBLF            .mV                                        :        (DSLT-H)                (6in)                   CBL Amplitude (Fluid Compensated)
TT              .us                                        :        (DSLT-H)                (6in)                   Transit Time for CBL
CTEM            .degC                                      :        (HGNS-H)                (6in)                   Cartridge Temperature
CFTC            .1/s                                       :        (HGNS-H)                (2in)                   Corrected Far Thermal Count Rate
CCL             .                                          :        (CAL-YA)                (1in)                   Casing Collar Locator Amplitude
TENS            .lbf                                       :        (WLWorkflow)            (6in)                   Cable Tension
DEPTH           .m                                         :        (WLWorkflow)            (6in)                   Depth Index
SDEV            .deg                                       :        (HGNS-H)                (6in)                   Sonde Deviation
TNPH            .V/V                                       :        (HGNS-H)                (6in)                   Thermal Neutron Porosity (Ratio Method) in Selected Lithology
GR              .gAPI                                      :        (HGNS-H)                (6in)                   Gamma Ray
#-------------------------------------------------------------
#            DEPT         CBLF           TT         CTEM         CFTC          CCL         TENS        DEPTH         SDEV         TNPH           GR 
#                     (DSLT-H)     (DSLT-H)     (HGNS-H)     (HGNS-H)     (CAL-YA)  (WLWorkflo)  (WLWorkflo)     (HGNS-H)     (HGNS-H)     (HGNS-H) 
#                                                                                                                                                   
#                        (6in)        (6in)        (6in)        (2in)        (1in)        (6in)        (6in)        (6in)        (6in)        (6in) 
~ASCII
# ...
       1695.45000     14.15024    274.56460     96.63994   1001.52700      0.06402   2139.66678   1695.44956      -999.25      0.23063     79.34599
       1695.60240     12.59297    274.23970     96.63994    807.90500     -0.18462   2123.50009   1695.60065      -999.25      0.28319     94.77116
       1695.75480     11.34198    274.34770     96.63994    644.72360      6.26470   2094.33338   1695.74984      -999.25      0.34827    109.31740
       1695.90720      9.62479    274.02600     96.63994    574.22690     -0.06369   2090.11102   1695.90760      -999.25      0.38949    112.53680
       1696.05960     10.02854    273.80170     96.63994    566.20070     -0.07543   2119.77770   1696.06508      -999.25      0.38551    109.52150
       1696.21200     12.69339    274.12300     96.63994    618.93730     -0.09515   2146.37507   1696.21406      -999.25      0.35441    105.51210
       1696.36440     13.41304    269.10650     96.63994    692.11330      0.06416   2140.11100   1696.36339      -999.25      0.32682    102.05830
       1696.51680     14.02379    269.50440     96.63994    800.36440      0.08857   2098.77785   1696.52116      -999.25      0.28560     99.01442
       1696.66920     16.98326    270.10250     96.63994    958.26360      0.04651   2082.87509   1696.66968      -999.25      0.23363     90.61423
       1696.82160     20.02661    270.08140     96.63994   1153.93400      0.13231   2091.55541   1696.81834      -999.25      0.19543     90.64404
       1696.97400     21.09872    270.25610     96.63994   1298.62600      0.11457   2131.22205   1696.97610      -999.25      0.17926     93.21977
       1697.12640     21.21837    270.35970     96.63994   1405.34100      0.03889   2144.66675   1697.13273      -999.25      0.16809    102.67320
       1697.27880     21.49297    270.15190     96.63994   1409.25400      0.06014   2113.75013   1697.28213      -999.25      0.16681     98.19478
       1697.43120     20.14702    270.09150     96.63994   1361.87100      0.05788   2085.33315   1697.43076      -999.25      0.17580     94.21423
       1697.58360     16.37124    270.21410     96.63994   1237.40800      0.13324   2096.50009   1697.58058      -999.25      0.19610     92.63409
       1697.73600     13.00994    269.31110     96.63994   1141.73400      0.16188   2123.99984   1697.73104      -999.25      0.21106     91.93173
       1697.88840     12.52005    269.94740     96.63994   1106.96800      0.04869   2150.66690   1697.89078      -999.25      0.20836     93.86366
       1698.04080     13.33675    269.86230     96.63994   1123.57600      0.03665   2116.12501   1698.03969      -999.25      0.20382     86.92664
       1698.19320     13.65746    269.85550     96.63994   1124.01800      0.10959   2084.11109   1698.18909      -999.25      0.20373     87.36567
       1698.34560     13.77211    269.19670     96.63994   1115.10300      0.12440   2083.22220   1698.34939      -999.25      0.20194     89.18013
       1698.49800     14.49940    269.36220     96.63994   1055.24500      0.07659   2102.75000   1698.49784      -999.25      0.21944     97.37537
       1698.65040     15.76718    269.43310     96.63994    999.32870      0.01562   2124.33346   1698.65024      -999.25      0.23533    112.91690
       1698.80280     16.53790    270.46220     96.63994    910.70070     -0.03442   2143.99997   1698.80010      -999.25      0.26259    117.36570
       1698.95520     16.41143    269.87410     96.63994    908.80040      0.05533   2129.55554   1698.95024      -999.25      0.26355    116.37080
       1699.10760     16.13966    269.62040     96.63994    966.23490      0.11923   2109.77798   1699.11111      -999.25      0.24412     98.51688
       1699.26000     16.76557    269.87650     96.63994   1086.58900      0.04095   2106.62503   1699.26143      -999.25      0.21384     86.45862
       1699.41240     18.19805    270.10740     96.63994   1159.59600      0.06661   2104.55567   1699.41224      -999.25      0.19937     79.25835
       1699.56480     19.52642    270.03260     96.63994   1174.65400      0.10681   2114.50009   1699.56337      -999.25      0.19820     82.36105
       1699.71720     19.89052    270.46520     96.63994   1172.64900      0.08114   2111.11109   1699.71337      -999.25      0.19887     81.07297
       1699.86960     18.98890    270.41990     96.91956   1167.93900      0.09803   2111.88893   1699.87085      -999.25      0.20124     79.43410
       1700.02200     17.67513    270.07980     96.91956   1183.77700     -0.02468   2102.99999   1700.02025      -999.25      0.19354     72.32182
       1700.17440     16.16011    270.20650     96.91956   1200.83600      0.06516   2098.22212   1700.17480      -999.25      0.19378     72.08752
       1700.32680     14.63313    269.99650     96.91956   1219.86500      0.10272   2106.66685   1700.33341      -999.25      0.19458     73.55121
       1700.47920     14.07616    270.02880     96.91956   1253.19200      0.05618   2120.50001   1700.48571      -999.25      0.18773     70.77076
       1700.63160     13.95653    270.32110     96.91956   1231.51400      0.12427   2117.33336   1700.63652      -999.25      0.20189     67.72712
       1700.78400     13.25225    270.21320     96.91956   1237.25100      0.09077   2116.62498   1700.78638      -999.25      0.20440     64.30226
       1700.93640     12.20790    270.35920     96.91956   1183.87700      0.06095   2118.22225   1700.93568      -999.25      0.21398     73.19995
       1701.08880     11.36785    270.12530     96.91956   1166.45700      0.04728   2106.88896   1701.09287      -999.25      0.20938     81.71707
       1701.24120     11.00249    269.89050     96.91956   1051.37900     -0.05783   2111.12503   1701.24326      -999.25      0.23477     86.72182
       1701.39360     11.11542    270.49760     96.91956    971.96850      0.08247   2132.55562   1701.39372      -999.25      0.24644     84.29243
       1701.54600     11.23976    269.70910     96.91956    899.16850      0.10936   2120.12503   1701.54425      -999.25      0.26566     78.81925
       1701.69840     11.24033    270.22100     96.91956    918.79590      0.11625   2102.99999   1701.69683      -999.25      0.25194     76.94629
       1701.85080     12.16340    270.13450     96.91956    927.96980     -0.03100   2092.66687   1701.85374      -999.25      0.24862     78.26310
       1702.00320     14.07802    270.65680     96.91956    934.80600      0.05409   2120.50001   1702.00145      -999.25      0.25011     82.71163
       1702.15560     15.65917    271.26570     96.91956    956.05330      0.09605   2124.77768   1702.14895      -999.25      0.24639     84.05807
       1702.30800     16.41129    270.17650     96.91956    955.27980      0.07296   2129.44449   1702.30558      -999.25      0.24761     80.48787
       1702.46040     16.58455    270.36280     96.91956    982.35470      0.07291   2113.22227   1702.46334      -999.25      0.23711     74.86825
       1702.61280     16.33154    270.03140     96.91956    955.36330      0.10872   2102.12503   1702.61328      -999.25      0.24734     71.44437
       1702.76520     15.78634    270.90150     96.91956    970.00740      0.06171   2101.44431   1702.76504      -999.25      0.24196     71.21007
       1702.91760     15.23663    270.30310     96.91956    942.56070      0.07375   2113.00016   1702.91839      -999.25      0.24600     72.05910
       1703.07000     14.65297    270.04470     96.91956    943.31690      0.05783   2111.88893   1703.06984      -999.25      0.25180     71.79450
       1703.22240     14.13226    270.08520     96.91956    910.62630     -0.01893   2109.12491   1703.22224      -999.25      0.26918     71.64799
       1703.37480     13.91243    269.23750     96.91956    901.03190      0.06373   2093.22215   1703.37210      -999.25      0.27009     79.69678
       1703.52720     14.27491    270.09500     96.91956    833.39870      0.08571   2089.99996   1703.52450      -999.25      0.29671     91.17087
       1703.67960     15.48429    270.51730     96.91956    814.58420      0.05278   2114.44456   1703.67746      -999.25      0.30873     98.80984
