~VERSION INFORMATION 
VERS  .    2.0                                     :CWLS Log ASCII Standard - VERSION 2.0
WRAP  .    NO                                      :One Line per Depth step
PROD  .    Schlumberger Technology Corp.           :LAS Producer
PROG  .    Horizon LASWriter 8.0.95333.3100        :LAS Program name and version
SOURCE.    CARRERA_02: CBL-VDL-NL-GR-Log[4]/Up     :Run&Pass Information
CREA  .    06/11/2018                              :LAS Creation date {MM/DD/YYYY}
#--------------------------------------------------
~WELL INFORMATION 
#MNEM           .UNIT                      DATA            :DESCRIPTION
#----            ------          --------------            -----------------------------
STRT            .m                    454.91400            :START DEPTH
STOP            .m                   2158.89840            :STOP DEPTH
STEP            .m                       0.1524            :STEP
NULL            .                       -999.25            :NULL VALUE
COMP            .                       YPF S.A            :COMPANY
WELL            .                YPF.SC.ECH-212            :WELL NAME
FLD             .                ESTANCIA CHOLITA          :FIELD NAME
RIGN            .                                          :Rig Name
RIGTYP          .                                          :Rig Type
SON             .                 TICKET NUMBER            :Service Order Number
SRVC            .                  Schlumberger            :SERVICE COMPANY
DATE            .                    06/08/2018            :LOG DATE(Composite Date for Composite LAP) (MM/DD/YYYY)
CLAB            .                       County:            :County Label
CNTY            .                    SANTA CRUZ            :COUNTY
SLAB            .                          UWI:            :State/Province Label
STAT            .                AR030000968000            :STATE or PROVINCE
PROV            .                AR030000968000            :STATE or PROVINCE
CTRY            .                     ARGENTINA            :COUNTRY
CONT_REGION     .                                          :Continent Region
SECT            .                       Rigless            :Section
TOWN            .                    4856781.85            :Township
RANG            .                    2459103.27            :Range
API             .                                          :API NUMBER
UWI             .                                          :UNIQUE WELL ID
LUL             .                          ARCS            :Logging Unit Location
LUN             .                          7062            :Logging Unit Number
LOC             .                          ARCS            :FIELD LOCATION
FL1             .                                          :Field Location Line 1
FL2             .                                          :Field Location Line 2
LATI            .deg                 -48.567818            :LATITUDE
LONG            .deg                  24.591030            :LONGITUDE
PDAT            .                            GL            :Local Permanent Datum
LMF             .                            GL            :Logging Measured From
APD             .m                      0.00000            :Elevation of Depth Reference (LMF) Above Permanent Datum
EPD             .m                    554.51000            :Elevation of Permanent Datum (PDAT) above Mean Sea Level
EKB             .m                      0.00000            :Elevation of Kelly Bushing Above Permanent Datum
EDF             .m                      0.00000            :Elevation of Drill Floor Above Permanent Datum
EGL             .m                      0.00000            :Elevation of Ground Level Above Permanent Datum
ECF             .m                      -999.25            :Elevation of Casing Flange above Permanent Datum
#--------------------------------------------------
~CURVE INFORMATION
#MNEM           .UNIT                  API CODE            :DESCRIPTION
#----            ------          --------------            -----------------------------
DEPT            .m                                         :                                                        Depth Index
CBLF            .mV                                        :        (DSLT-H)                (6in)                   CBL Amplitude (Fluid Compensated)
TT              .us                                        :        (DSLT-H)                (6in)                   Transit Time for CBL
CTEM            .degC                                      :        (HGNS-H)                (6in)                   Cartridge Temperature
CFTC            .1/s                                       :        (HGNS-H)                (2in)                   Corrected Far Thermal Count Rate
CCL             .                                          :        (CAL-YA)                (1in)                   Casing Collar Locator Amplitude
TENS            .lbf                                       :        (WLWorkflow)            (6in)                   Cable Tension
DEPTH           .m                                         :        (WLWorkflow)            (6in)                   Depth Index
SDEV            .deg                                       :        (HGNS-H)                (6in)                   Sonde Deviation
TNPH            .V/V                                       :        (HGNS-H)                (6in)                   Thermal Neutron Porosity (Ratio Method) in Selected Lithology
GR              .gAPI                                      :        (HGNS-H)                (6in)                   Gamma Ray
#-------------------------------------------------------------
#            DEPT         CBLF           TT         CTEM         CFTC          CCL         TENS        DEPTH         SDEV         TNPH           GR 
#                     (DSLT-H)     (DSLT-H)     (HGNS-H)     (HGNS-H)     (CAL-YA)  (WLWorkflo)  (WLWorkflo)     (HGNS-H)     (HGNS-H)     (HGNS-H) 
#                                                                                                                                                   
#                        (6in)        (6in)        (6in)        (2in)        (1in)        (6in)        (6in)        (6in)        (6in)        (6in) 
~ASCII
# ...
       1360.17000      8.89191    269.32910     83.21837    825.27610      0.04742   1723.87499   1360.17683      -999.25      0.24605     77.35519
       1360.32240      9.32301    269.25260     83.21837    819.08890      0.08719   1728.37499   1360.32605      -999.25      0.25411     70.77011
       1360.47480     10.18012    269.18470     83.21837    869.42580      0.09194   1749.25008   1360.47528      -999.25      0.23612     65.61868
       1360.62720     11.01432    269.30170     83.21837    867.89520      0.05025   1745.12506   1360.62450      -999.25      0.24717     60.87714
       1360.77960     12.59416    268.80900     83.21837    856.00570     -0.01905   1726.37509   1360.77468      -999.25      0.24680     62.16478
       1360.93200     14.81279    268.65210     83.21837    800.66950      0.07310   1727.62503   1360.92676      -999.25      0.26830     70.82830
       1361.08440     15.98569    268.38490     83.21837    775.32390      0.12043   1730.22225   1361.08480      -999.25      0.28020     71.64811
       1361.23680     15.32092    268.14040     83.21837    784.50200      0.07954   1739.75010   1361.24236      -999.25      0.27643     70.94577
       1361.38920     14.59325    267.97060     83.21837    853.08810      0.07294   1744.62508   1361.39031      -999.25      0.24779     61.46260
       1361.54160     17.34557    268.15530     83.49799    943.91870      0.07604   1732.87499   1361.53795      -999.25      0.22551     56.77977
       1361.69400     20.88377    276.73790     83.49799   1026.35100      0.06817   1723.11109   1361.69553      -999.25      0.21121     52.24333
       1361.84640     19.92028    273.20430     83.49799   1051.28700      0.02085   1723.12503   1361.85291      -999.25      0.20282     45.33617
       1361.99880     18.90382    273.26830     83.49799   1041.26900     -0.26751   1743.37492   1362.00118      -999.25      0.20426     46.03844
       1362.15120     19.45126    273.04030     83.49799    963.82900     -0.48405   1753.12511   1362.14945      -999.25      0.22317     53.61899
       1362.30360     18.74224    273.30000     83.49799    875.28500      0.07904   1752.37492   1362.29995      -999.25      0.23828     62.98478
       1362.45600     20.25074    273.06330     83.49799    834.45060      0.10059   1724.66677   1362.45725      -999.25      0.24182     69.57001
       1362.60840     22.87801    272.98820     83.49799    828.35380      0.11371   1732.62501   1362.61491      -999.25      0.23422     68.16499
       1362.76080     22.79040    268.24940     83.49799    839.53830      0.07123   1748.75010   1362.76350      -999.25      0.22707     65.44313
       1362.91320     23.34917    268.78280     83.49799    821.10880     -0.06160   1758.50007   1362.90955      -999.25      0.23408     62.37025
       1363.06560     24.61938    268.30420     83.49799    810.36010      0.03852   1747.62493   1363.05973      -999.25      0.24770     65.41404
       1363.21800     26.47621    268.93590     83.49799    810.70950      0.07022   1719.55551   1363.21869      -999.25      0.25158     68.13593
       1363.37040     30.81217    269.39400     83.49799    805.28720      0.13773   1711.37494   1363.37945      -999.25      0.26383     67.43340
       1363.52280     36.04044    269.27220     83.49799    809.86510      0.10746   1736.87502   1363.52963      -999.25      0.26025     66.11629
       1363.67520     41.05305    269.72180     83.49799    825.28150      0.14130   1760.75018   1363.67790      -999.25      0.25254     64.71151
       1363.82760     43.38932    269.88740     83.49799    860.31840      0.09028   1753.25010   1363.82490      -999.25      0.23663     65.06264
       1363.98000     42.97285    269.86510     83.49799    883.39090      0.01141   1707.77777   1363.97984      -999.25      0.23579     66.37984
       1364.13240     43.36258    269.36580     83.49799    874.11000     -0.01529   1711.37516   1364.13954      -999.25      0.24115     67.17000
       1364.28480     43.77327    269.52060     83.49799    892.15870      0.06653   1763.25005   1364.28750      -999.25      0.24288     67.05280
       1364.43720     41.16195    269.19720     83.49799    901.37290      0.04405   1799.62504   1364.43514      -999.25      0.24410     67.05285
       1364.58960     36.48395    269.22030     83.49799    932.55510      0.12113   1748.12491   1364.58468      -999.25      0.23209     71.88246
       1364.74200     32.03885    269.18190     83.49799    893.33480      0.10969   1694.12490   1364.73422      -999.25      0.23630     81.21844
       1364.89440     28.80005    269.39790     83.49799    840.00540     -0.01674   1703.77775   1364.89509      -999.25      0.24697     84.49677
       1365.04680     28.24568    269.76880     83.49799    776.59460      0.06742   1742.74995   1365.05331      -999.25      0.26097     87.30595
       1365.19920     30.34108    269.84230     83.49799    704.07590      0.05403   1744.25010   1365.20190      -999.25      0.28937     90.84781
       1365.35160     32.74754    269.12100     83.49799    681.41600      0.04568   1728.37499   1365.35017      -999.25      0.29765     92.57427
       1365.50400     34.83794    269.11370     83.49799    673.78270      0.05341   1718.55556   1365.50666      -999.25      0.30457     89.76482
       1365.65640     37.75388    269.12310     83.49799    726.27060      0.13284   1733.37497   1365.66227      -999.25      0.27847     78.84806
       1365.80880     41.62697    269.18120     83.49799    806.87550      0.07482   1744.87507   1365.81055      -999.25      0.24055     73.14059
       1365.96120     43.94624    269.46920     83.49799    845.98410      0.03635   1734.62513   1365.95977      -999.25      0.23013     68.31137
       1366.11360     41.71084    269.02110     83.49799    899.85270      0.04786   1726.77772   1366.11513      -999.25      0.21978     63.56992
       1366.26600     36.59806    268.97640     83.49799    896.05800      0.07106   1744.00011   1366.26997      -999.25      0.22901     56.77983
       1366.41840     33.00171    268.88860     83.49799    925.28440     -0.02320   1746.75020   1366.41443      -999.25      0.22499     53.41400
       1366.57080     31.48628    268.77730     83.49799    906.87000      0.09309   1742.99994   1366.56895      -999.25      0.24013     49.46284
       1366.72320     29.97551    268.78000     83.49799    911.43040      0.11208   1743.37492   1366.72272      -999.25      0.24157     45.89227
       1366.87560     28.82518    268.75090     83.49799    915.29110      0.10948   1739.66670   1366.87713      -999.25      0.23482     42.84828
       1367.02800     29.39017    268.97350     83.49799    900.61900      0.05577   1725.00016   1367.03070      -999.25      0.24126     40.44830
       1367.18040     31.03370    269.12420     83.49799    934.57420      0.08828   1723.99999   1367.17580      -999.25      0.22521     41.76521
       1367.33280     32.98650    269.16040     83.49799    941.11940      0.10188   1739.00014   1367.33208      -999.25      0.22576     42.46775
       1367.48520     35.08595    269.13030     83.49799    973.48150      0.06095   1747.50016   1367.48758      -999.25      0.22196     49.34572
       1367.63760     38.67461    269.03850     83.49799    964.96390      0.12823   1738.22230   1367.64167      -999.25      0.22563     51.59950
       1367.79000     44.46036    269.00580     83.49799    943.02330      0.04836   1728.00001   1367.79714      -999.25      0.23119     56.04805
       1367.94240     49.13477    268.80390     83.49799    910.28030      0.06681   1738.12496   1367.94161      -999.25      0.23727     57.89195
       1368.09480     50.79060    269.21050     83.49799    808.82230      0.03782   1743.33333   1368.09549      -999.25      0.27239     64.21351
       1368.24720     50.66318    269.13540     83.49799    748.52270      0.05742   1755.12501   1368.24958      -999.25      0.28788     69.68697
       1368.39960     49.27581    268.98200     83.49799    719.70120      0.09918   1750.37502   1368.39690      -999.25      0.30519     69.62830
