~VERSION INFORMATION 
VERS  .    2.0                                     :CWLS Log ASCII Standard - VERSION 2.0
WRAP  .    NO                                      :One Line per Depth step
PROD  .    Schlumberger Technology Corp.           :LAS Producer
PROG  .    Horizon LASWriter 8.0.95333.3100        :LAS Program name and version
SOURCE.    CARRERA_02: CBL-VDL-NL-GR-Log[4]/Up     :Run&Pass Information
CREA  .    06/11/2018                              :LAS Creation date {MM/DD/YYYY}
#--------------------------------------------------
~WELL INFORMATION 
#MNEM           .UNIT                      DATA            :DESCRIPTION
#----            ------          --------------            -----------------------------
STRT            .m                    454.91400            :START DEPTH
STOP            .m                   2158.89840            :STOP DEPTH
STEP            .m                       0.1524            :STEP
NULL            .                       -999.25            :NULL VALUE
COMP            .                       YPF S.A            :COMPANY
WELL            .                YPF.SC.ECH-212            :WELL NAME
FLD             .                ESTANCIA CHOLITA          :FIELD NAME
RIGN            .                                          :Rig Name
RIGTYP          .                                          :Rig Type
SON             .                 TICKET NUMBER            :Service Order Number
SRVC            .                  Schlumberger            :SERVICE COMPANY
DATE            .                    06/08/2018            :LOG DATE(Composite Date for Composite LAP) (MM/DD/YYYY)
CLAB            .                       County:            :County Label
CNTY            .                    SANTA CRUZ            :COUNTY
SLAB            .                          UWI:            :State/Province Label
STAT            .                AR030000968000            :STATE or PROVINCE
PROV            .                AR030000968000            :STATE or PROVINCE
CTRY            .                     ARGENTINA            :COUNTRY
CONT_REGION     .                                          :Continent Region
SECT            .                       Rigless            :Section
TOWN            .                    4856781.85            :Township
RANG            .                    2459103.27            :Range
API             .                                          :API NUMBER
UWI             .                                          :UNIQUE WELL ID
LUL             .                          ARCS            :Logging Unit Location
LUN             .                          7062            :Logging Unit Number
LOC             .                          ARCS            :FIELD LOCATION
FL1             .                                          :Field Location Line 1
FL2             .                                          :Field Location Line 2
LATI            .deg                 -48.567818            :LATITUDE
LONG            .deg                  24.591030            :LONGITUDE
PDAT            .                            GL            :Local Permanent Datum
LMF             .                            GL            :Logging Measured From
APD             .m                      0.00000            :Elevation of Depth Reference (LMF) Above Permanent Datum
EPD             .m                    554.51000            :Elevation of Permanent Datum (PDAT) above Mean Sea Level
EKB             .m                      0.00000            :Elevation of Kelly Bushing Above Permanent Datum
EDF             .m                      0.00000            :Elevation of Drill Floor Above Permanent Datum
EGL             .m                      0.00000            :Elevation of Ground Level Above Permanent Datum
ECF             .m                      -999.25            :Elevation of Casing Flange above Permanent Datum
#--------------------------------------------------
~CURVE INFORMATION
#MNEM           .UNIT                  API CODE            :DESCRIPTION
#----            ------          --------------            -----------------------------
DEPT            .m                                         :                                                        Depth Index
CBLF            .mV                                        :        (DSLT-H)                (6in)                   CBL Amplitude (Fluid Compensated)
TT              .us                                        :        (DSLT-H)                (6in)                   Transit Time for CBL
CTEM            .degC                                      :        (HGNS-H)                (6in)                   Cartridge Temperature
CFTC            .1/s                                       :        (HGNS-H)                (2in)                   Corrected Far Thermal Count Rate
CCL             .                                          :        (CAL-YA)                (1in)                   Casing Collar Locator Amplitude
TENS            .lbf                                       :        (WLWorkflow)            (6in)                   Cable Tension
DEPTH           .m                                         :        (WLWorkflow)            (6in)                   Depth Index
SDEV            .deg                                       :        (HGNS-H)                (6in)                   Sonde Deviation
TNPH            .V/V                                       :        (HGNS-H)                (6in)                   Thermal Neutron Porosity (Ratio Method) in Selected Lithology
GR              .gAPI                                      :        (HGNS-H)                (6in)                   Gamma Ray
#-------------------------------------------------------------
#            DEPT         CBLF           TT         CTEM         CFTC          CCL         TENS        DEPTH         SDEV         TNPH           GR 
#                     (DSLT-H)     (DSLT-H)     (HGNS-H)     (HGNS-H)     (CAL-YA)  (WLWorkflo)  (WLWorkflo)     (HGNS-H)     (HGNS-H)     (HGNS-H) 
#                                                                                                                                                   
#                        (6in)        (6in)        (6in)        (2in)        (1in)        (6in)        (6in)        (6in)        (6in)        (6in) 
~ASCII
# ...
       1469.13600     12.94919    270.03080     87.69222    721.18960      0.11370   1839.55560   1469.13386      -999.25      0.31954     92.19413
       1469.28840     12.90247    269.86230     87.69222    708.15780      0.10820   1848.77772   1469.29022      -999.25      0.32363     92.89654
       1469.44080     13.16681    270.03870     87.69222    714.67810      0.08528   1824.11123   1469.44516      -999.25      0.31174     88.94543
       1469.59320     13.74238    269.59090     87.69222    704.70070      0.07248   1826.66663   1469.60010      -999.25      0.31434     91.52102
       1469.74560     13.97006    269.76700     87.69222    716.18260      0.11656   1846.66676   1469.75447      -999.25      0.29268     90.84797
       1469.89800     13.57831    269.26610     87.69222    700.15530      0.08352   1841.49998   1469.90133      -999.25      0.30124     94.38938
       1470.05040     13.10184    269.55480     87.69222    713.19310      0.07705   1830.55560   1470.04601      -999.25      0.30650     93.21895
       1470.20280     12.79480    268.88640     87.69222    722.41230      0.13107   1815.22228   1470.19954      -999.25      0.31411     91.31653
       1470.35520     12.28750    269.30600     87.69222    752.65210      0.06249   1818.00002   1470.35476      -999.25      0.29257     84.29215
       1470.50760     11.74467    268.86170     87.69222    718.19130      0.02782   1845.55553   1470.51139      -999.25      0.30895     80.75046
       1470.66000     11.68827    269.12120     87.69222    691.37910     -0.01579   1859.55573   1470.66492      -999.25      0.32454     83.56019
       1470.81240     12.12313    268.97980     87.69222    648.83730      0.08819   1837.66676   1470.81760      -999.25      0.33525     80.04817
       1470.96480     12.69287    269.62090     87.69222    646.51440      0.12007   1830.22221   1470.97170      -999.25      0.32035     77.26770
       1471.11720     13.04712    269.82150     87.69222    643.45990      0.07360   1816.44457   1471.12494      -999.25      0.32749     74.77991
       1471.26960     13.31693    269.51470     87.69222    641.93620     -0.01160   1844.87503   1471.27198      -999.25      0.33634     75.24799
       1471.42200     13.63668    270.05360     87.69222    626.61110     -0.01239   1866.11116   1471.41902      -999.25      0.34853     75.95076
       1471.57440     13.56402    269.37750     87.69222    608.92740      0.02902   1847.33332   1471.57593      -999.25      0.35819     72.26298
       1471.72680     13.19894    269.52790     87.69222    578.33140      0.10640   1843.37488   1471.72696      -999.25      0.38690     69.21924
       1471.87920     13.00640    269.24260     87.69222    575.26500      0.05710   1839.33349   1471.87509      -999.25      0.39047     73.66766
       1472.03160     12.88921    269.38340     87.69222    556.92290      0.05862   1840.33322   1472.03229      -999.25      0.40610     70.94574
       1472.18400     12.85471    269.92310     87.69222    579.85880      0.09767   1856.66671   1472.18807      -999.25      0.37732     70.77019
       1472.33640     14.18984    269.71370     87.69222    566.85660      0.03498   1841.88890   1472.34330      -999.25      0.39144     66.55570
       1472.48880     14.32597    276.04550     87.69222    563.78900      0.04620   1839.62507   1472.49023      -999.25      0.39212     73.22878
       1472.64120     11.59824    273.78720     87.69222    542.37350      0.05943   1849.66684   1472.63737      -999.25      0.39731     77.85342
       1472.79360     10.61879    273.46090     87.69222    550.08270      0.07654   1845.33342   1472.79400      -999.25      0.38590     80.19509
       1472.94600     11.04219    273.81410     87.69222    544.35260      2.19948   1846.66676   1472.95177      -999.25      0.40057     82.18515
       1473.09840     10.81088    273.80790     87.69222    572.64090      0.17810   1839.00010   1473.10614      -999.25      0.38102     85.72636
       1473.25080     13.04175    274.08750     87.69222    603.96070      0.04561   1843.74986   1473.25255      -999.25      0.35632     86.89661
       1473.40320     14.80269    281.21190     87.69222    648.77670      0.05911   1860.66674   1473.39965      -999.25      0.32522     84.32116
       1473.55560     12.91216    268.15880     87.69222    645.73250      0.09345   1864.55571   1473.55572      -999.25      0.32776     91.16946
       1473.70800     13.49759    269.68410     87.97184    601.35610      0.03612   1866.22222   1473.71151      -999.25      0.35417     89.99892
       1473.86040     16.87431    270.34390     87.97184    590.68010      0.14000   1844.88897   1473.86504      -999.25      0.35834     94.91625
       1474.01280     21.05108    270.68860     87.97184    596.03450      0.08688   1825.87486   1474.01296      -999.25      0.35849     92.28251
       1474.16520     27.48540    270.85260     87.97184    615.20320     -0.06448   1832.44445   1474.16419      -999.25      0.34665     95.09202
       1474.31760     36.09142    270.87800     87.97184    635.41300     -0.06897   1862.33325   1474.32167      -999.25      0.33330     99.07246
       1474.47000     47.10550    271.04620     87.97184    686.02890     -0.01236   1863.00003   1474.46984      -999.25      0.30572     99.27680
       1474.62240     59.67755    271.36510     87.97184    713.58700      0.05084   1851.99990   1474.61857      -999.25      0.29729     93.86231
       1474.77480     69.79077    271.67850     87.97184    776.94140      0.05468   1832.66656   1474.77605      -999.25      0.26873     87.30614
       1474.92720     73.00708    272.03490     87.97184    818.42830      0.03171   1840.00005   1474.93353      -999.25      0.26297     74.66287
       1475.07960     70.31525    272.08370     87.97184    919.87270      0.04970   1866.37509   1475.08325      -999.25      0.23391     74.39954
       1475.23200     65.45789    271.56850     87.97184    943.38620      0.00610   1867.22217   1475.23494      -999.25      0.23577     73.69685
       1475.38440     61.81078    271.36100     87.97184    977.25540      0.06614   1844.12507   1475.38805      -999.25      0.22825     75.10118
       1475.53680     60.19005    271.32740     87.97184    921.04530      0.07407   1823.44445   1475.54031      -999.25      0.25023     76.79869
       1475.68920     59.17545    271.14690     87.97184    891.39650      0.03995   1850.74997   1475.69126      -999.25      0.25855     72.58442
       1475.84160     59.39109    270.90080     87.97184    857.50120     -0.03733   1862.77792   1475.84229      -999.25      0.26649     70.97513
       1475.99400     61.13854    271.17860     87.97184    864.45750      0.08785   1852.66669   1476.00287      -999.25      0.26349     73.55052
       1476.14640     63.36793    271.24480     87.97184    860.63670      0.03728   1840.00005   1476.15481      -999.25      0.26618     78.23315
       1476.29880     64.62035    271.17910     87.97184    854.52700      0.09844   1834.12512   1476.29737      -999.25      0.27336     84.99420
       1476.45120     64.82812    271.32860     87.97184    863.72000      0.11018   1849.88895   1476.44850      -999.25      0.25624     89.91122
       1476.60360     66.85418    271.41460     87.97184    840.64420      0.07983   1855.99993   1476.60154      -999.25      0.25205     93.65820
       1476.75600     69.79926    271.72470     87.97184    770.74410      0.02222   1846.33337   1476.75132      -999.25      0.27631     99.04331
       1476.90840     68.69701    271.62180     87.97184    729.27540      0.02212   1839.55538   1476.91219      -999.25      0.28728     92.95553
       1477.06080     65.19480    271.23550     87.97184    690.16010      0.05494   1850.74997   1477.06445      -999.25      0.30298     90.37978
       1477.21320     63.45580    271.35540     87.97184    696.33610      0.08527   1858.44428   1477.21389      -999.25      0.30760     81.71643
       1477.36560     60.32845    271.23650     87.97184    690.24460      0.07800   1855.12497   1477.36576      -999.25      0.33302     80.45789
