~VERSION INFORMATION 
VERS  .    2.0                                     :CWLS Log ASCII Standard - VERSION 2.0
WRAP  .    NO                                      :One Line per Depth step
PROD  .    Schlumberger Technology Corp.           :LAS Producer
PROG  .    Horizon LASWriter 6.2.64464.3100        :LAS Program name and version
SOURCE.    1-Log[5]/Up                             :Run&Pass Information
CREA  .    01/05/2017                              :LAS Creation date {MM/DD/YYYY}
#--------------------------------------------------
~WELL INFORMATION 
#MNEM           .UNIT                      DATA            :DESCRIPTION
#----            ------          --------------            -----------------------------
STRT            .m                     16.91640            :START DEPTH
STOP            .m                   1777.89840            :STOP DEPTH
STEP            .m                       0.1524            :STEP
NULL            .                       -999.25            :NULL VALUE
COMP            .                      YPF S.A.            :COMPANY
WELL            .                 YPF.SC.LC-941            :WELL NAME
FLD             .                 LOMAS DEL CUY            :FIELD NAME
RIGN            .                                          :Rig Name
RIGTYP          .                                          :Rig Type
SON             .                                          :Service Order Number
SRVC            .                  Schlumberger            :SERVICE COMPANY
DATE            .                    01/05/2017            :LOG DATE(Composite Date for Composite LAP) (MM/DD/YYYY)
CLAB            .                    Provincia:            :County Label
CNTY            .                    SANTA CRUZ            :COUNTY
SLAB            .                          UWI:            :State/Province Label
STAT            .                 No disponible            :STATE or PROVINCE
PROV            .                 No disponible            :STATE or PROVINCE
CTRY            .                     ARGENTINA            :COUNTRY
CONT_REGION     .                                          :Continent Region
SECT            .                       RIGLESS            :Section
TOWN            .                NT Ground Level G.L       :Township
RANG            .                M.R Drilling Floor D.F    :Range
API             .                                          :API NUMBER
UWI             .                                          :UNIQUE WELL ID
LUL             .                  CANADON SECO            :Logging Unit Location
LUN             .                          7008            :Logging Unit Number
LOC             .                          ARCS            :FIELD LOCATION
FL1             .                X: 4.856.702,40           :Field Location Line 1
FL2             .                Y: 2.494.852,45           :Field Location Line 2
LATI            .deg                 0° 0' 0" N            :LATITUDE
LONG            .deg                 0° 0' 0" E            :LONGITUDE
PDAT            .                            GL            :Local Permanent Datum
LMF             .                            GL            :Logging Measured From
APD             .m                      0.00000            :Elevation of Depth Reference (LMF) Above Permanent Datum
EPD             .m                    573.57000            :Elevation of Permanent Datum (PDAT) above Mean Sea Level
EKB             .m                      5.30000            :Elevation of Kelly Bushing Above Permanent Datum
EDF             .m                      5.30000            :Elevation of Drill Floor Above Permanent Datum
EGL             .m                      0.00000            :Elevation of Ground Level Above Permanent Datum
ECF             .m                      -999.25            :Elevation of Casing Flange above Permanent Datum
#--------------------------------------------------
~CURVE INFORMATION
#MNEM           .UNIT                  API CODE            :DESCRIPTION
#----            ------          --------------            -----------------------------
DEPT            .m                                         :                                                        Depth Index
CFTC            .1/s                                       :        (HGNS-H)                (6in)                   Corrected Far Thermal Count Rate
GR              .gAPI                                      :        (HGNS-H)                (6in)                   Gamma Ray
TNPH            .m3/m3                                     :        (HGNS-H)                (6in)                   Thermal Neutron Porosity (Ratio Method) in Selected Lithology
CBL             .mV                                        :        (ASLT-A)                (6in)                   CBL Amplitude
CBLF            .mV                                        :        (ASLT-A)                (6in)                   CBL Amplitude (Fluid Compensated)
TT              .us                                        :        (ASLT-A)                (6in)                   Transit Time for CBL
CCL             .                                          :        (CAL-YA)                (1in)                   Casing Collar Locator Amplitude
#-------------------------------------------------------------
#            DEPT         CFTC           GR         TNPH          CBL         CBLF           TT          CCL 
#                     (HGNS-H)     (HGNS-H)     (HGNS-H)     (ASLT-A)     (ASLT-A)     (ASLT-A)     (CAL-YA) 
#                                                                                                            
#                        (6in)        (6in)        (6in)        (6in)        (6in)        (6in)        (1in) 
~ASCII
# ...
        366.52200    241.68730     41.50534      0.63614     34.97103     27.97683    280.48240      0.05604
        366.67440    257.56760     38.56368      0.51233     33.46790     26.77432    280.51300      0.02056
        366.82680    253.89560     36.38774      0.54056     32.05293     25.64234    280.36430      0.02388
        366.97920    267.57890     34.77590      0.49083     31.05548     24.84439    280.31570      0.02847
        367.13160    237.90330     33.92968      0.66617     30.89579     24.71663    280.33260      0.01056
        367.28400    226.86710     33.92965      0.80139     31.46132     25.16906    280.30430      0.01325
        367.43640    200.31880     37.31450      1.44219     32.07430     25.65944    280.19480      0.02176
        367.58880    204.91470     42.39159      1.22640     32.22823     25.78259    280.07500      0.01214
        367.74120    203.40890     43.43942      1.20977     31.92438     25.53950    280.15210      0.02135
        367.89360    225.81580     48.75867      0.80915     31.30430     25.04344    280.07430      0.02289
        368.04600    224.33980     45.09192      0.84881     30.37153     24.29723    280.20860     -0.00349
        368.19840    221.22640     47.91256      0.82573     29.69946     23.75957    280.14440      0.01891
        368.35080    203.63470     44.28569      1.22351     29.80594     23.84475    280.15880      0.00420
        368.50320    201.43360     43.43963      1.29574     30.50346     24.40277    280.10630     -0.01101
        368.65560    198.90470     40.33671      1.27204     31.63822     25.31058    280.18890      0.00112
        368.80800    199.03300     44.28592      1.20450     32.89836     26.31869    280.17480      0.02151
        368.96040    207.66470     42.67397      1.07972     33.72778     26.98222    280.27700      0.02264
        369.11280    214.10330     47.75131      0.91754     34.12870     27.30296    280.27070      0.00042
        369.26520    220.51670     41.30374      0.84346     34.34802     27.47842    280.41420      0.02724
        369.41760    214.87640     40.09468      0.99621     34.55387     27.64310    280.49220      0.01792
        369.57000    191.66250     34.45333      1.69126     34.84697     27.87757    280.62540      0.02083
        369.72240    198.00350     35.09815      1.39755     35.19920     28.15936    280.44410      0.02959
        369.87480    210.66670     34.81620      1.04283     35.86859     28.69487    280.53870      0.01667
        370.02720    224.22220     34.93699      0.72612     36.76617     29.41294    280.54020      0.05500
        370.17960    219.73500     35.66225      0.78296     37.39465     29.91572    280.57070      0.02363
        370.33200    203.85520     41.02168      1.05120     37.53126     30.02501    280.50750      0.03378
        370.48440    221.57350     43.15763      0.74915     37.21511     29.77209    280.56170      0.02832
        370.63680    224.33380     45.65596      0.72457     36.62094     29.29675    280.55560      0.01968
        370.78920    229.15780     41.14275      0.77722     35.84488     28.67591    280.53590      0.00867
        370.94160    220.87300     38.68461      0.81560     35.16671     28.13337    280.46880      0.01407
        371.09400    219.36870     39.85334      0.84737     35.55996     28.44797    280.48010      0.01661
        371.24640    223.97320     42.43241      0.85290     37.16065     29.72852    280.56190      0.01989
        371.39880    213.75380     46.30075      1.05754     38.21083     30.56866    280.66920      0.02990
        371.55120    223.42120     41.90846      0.81080     38.29349     30.63479    280.54880      0.02133
        371.70360    211.47040     43.27847      1.08818     38.57260     30.85808    280.57670      0.02989
        371.85600    211.56940     41.98896      1.02233     39.12281     31.29824    280.55490      0.01278
        372.00840    192.24740     47.79160      1.42146     38.91460     31.13168    280.65320      0.01837
        372.16080    201.20840     47.38865      1.12800     37.21897     29.77518    280.57450      0.01225
        372.31320    206.72960     47.71086      0.97784     34.95543     27.96434    280.48600      0.02458
        372.46560    217.18520     42.91568      0.81065     33.51558     26.81247    280.44220      0.02475
        372.61800    227.56010     42.75448      0.67373     32.75032     26.20026    280.44720      0.00320
        372.77040    229.96200     45.33384      0.66799     31.81718     25.45374    280.38980      0.00320
        372.92280    225.13430     47.87243      0.75441     30.85168     24.68134    280.37820      0.03435
        373.07520    211.54370     48.67849      1.00973     30.61658     24.49326    280.37150     -0.00251
        373.22760    206.37470     50.16938      1.13716     30.97955     24.78364    280.40790     -0.00809
        373.38000    207.18230     50.81398      1.20583     31.21717     24.97373    280.37140     -0.00432
        373.53240    215.22520     53.11084      1.00707     31.19964     24.95971    280.40150     -0.01190
        373.68480    222.01170     48.71849      0.85179     31.14552     24.91642    280.33880      0.02413
        373.83720    229.50410     44.97092      0.65951     31.44410     25.15528    280.30240      0.02171
        373.98960    228.58420     41.38430      0.63545     31.99663     25.59731    280.36020      0.02578
        374.14200    234.21300     42.39168      0.57721     32.02627     25.62102    280.35930      0.02355
        374.29440    227.75900     43.23805      0.62545     31.53045     25.22436    280.35970      0.02479
        374.44680    222.23720     44.84997      0.66940     31.46835     25.17468    280.36270      0.01673
        374.59920    232.73640     41.74700      0.62590     32.23510     25.78808    280.36430      0.01756
        374.75160    227.21620     38.52332      0.69871     33.18114     26.54491    280.41730      0.02360
        374.90400    231.23620     35.42048      0.68846     34.07345     27.25876    280.36750      0.00875
        375.05640    215.69360     35.90398      0.84769     35.32729     28.26183    280.33070      0.01388
        375.20880    236.29940     41.38434      0.61916     36.35371     29.08297    280.38530      0.02234
        375.36120    251.60200     42.79456      0.55107     36.40032     29.12026    280.42970      0.01941
        375.51360    246.18700     48.59747      0.59922     35.55124     28.44099    280.48970      0.00235
        375.66600    246.74690     48.59752      0.58037     34.23037     27.38429    280.53750      0.02338
        375.81840    234.68380     49.72604      0.72919     32.97155     26.37724    280.54610      0.02009
        375.97080    262.18630     42.02937      0.51899     32.07304     25.65844    280.55420      0.02650
        376.12320    249.29060     36.22658      0.59256     31.86999     25.49599    280.60390      0.03014
        376.27560    261.36380     33.97002      0.51253     32.78730     26.22984    280.59450     -0.01243
        376.42800    253.06420     38.12054      0.57081     34.45550     27.56440    280.67320      0.02024
        376.58040    271.83070     40.82050      0.48209     34.82677     27.86142    280.75600      0.01960
        376.73280    266.29730     42.99614      0.51758     37.42155     29.93724    280.59650     -0.00979
        376.88520    259.96970     41.38430      0.58079     39.68317     31.74654    286.63090      0.00644
        377.03760    255.92950     38.68442      0.65022     33.90566     27.12453    284.79090      0.03458
        377.19000    263.07290     33.12371      0.59056     28.88541     23.10833    284.77690     -0.16462
        377.34240    297.04620     32.47873      0.46532     29.08532     23.26826    284.88400     -0.76868
        377.49480    315.59640     36.87096      0.42522     30.11406     24.09125    284.82570     -0.00042
        377.64720    322.03050     39.85301      0.41481     31.51060     25.20848    288.03670      0.03137
