~VERSION INFORMATION 
VERS  .    2.0                                     :CWLS Log ASCII Standard - VERSION 2.0
WRAP  .    NO                                      :One Line per Depth step
PROD  .    Schlumberger Technology Corp.           :LAS Producer
PROG  .    Horizon LASWriter 6.2.64464.3100        :LAS Program name and version
SOURCE.    1-Log[5]/Up                             :Run&Pass Information
CREA  .    01/05/2017                              :LAS Creation date {MM/DD/YYYY}
#--------------------------------------------------
~WELL INFORMATION 
#MNEM           .UNIT                      DATA            :DESCRIPTION
#----            ------          --------------            -----------------------------
STRT            .m                     16.91640            :START DEPTH
STOP            .m                   1777.89840            :STOP DEPTH
STEP            .m                       0.1524            :STEP
NULL            .                       -999.25            :NULL VALUE
COMP            .                      YPF S.A.            :COMPANY
WELL            .                 YPF.SC.LC-941            :WELL NAME
FLD             .                 LOMAS DEL CUY            :FIELD NAME
RIGN            .                                          :Rig Name
RIGTYP          .                                          :Rig Type
SON             .                                          :Service Order Number
SRVC            .                  Schlumberger            :SERVICE COMPANY
DATE            .                    01/05/2017            :LOG DATE(Composite Date for Composite LAP) (MM/DD/YYYY)
CLAB            .                    Provincia:            :County Label
CNTY            .                    SANTA CRUZ            :COUNTY
SLAB            .                          UWI:            :State/Province Label
STAT            .                 No disponible            :STATE or PROVINCE
PROV            .                 No disponible            :STATE or PROVINCE
CTRY            .                     ARGENTINA            :COUNTRY
CONT_REGION     .                                          :Continent Region
SECT            .                       RIGLESS            :Section
TOWN            .                NT Ground Level G.L       :Township
RANG            .                M.R Drilling Floor D.F    :Range
API             .                                          :API NUMBER
UWI             .                                          :UNIQUE WELL ID
LUL             .                  CANADON SECO            :Logging Unit Location
LUN             .                          7008            :Logging Unit Number
LOC             .                          ARCS            :FIELD LOCATION
FL1             .                X: 4.856.702,40           :Field Location Line 1
FL2             .                Y: 2.494.852,45           :Field Location Line 2
LATI            .deg                 0° 0' 0" N            :LATITUDE
LONG            .deg                 0° 0' 0" E            :LONGITUDE
PDAT            .                            GL            :Local Permanent Datum
LMF             .                            GL            :Logging Measured From
APD             .m                      0.00000            :Elevation of Depth Reference (LMF) Above Permanent Datum
EPD             .m                    573.57000            :Elevation of Permanent Datum (PDAT) above Mean Sea Level
EKB             .m                      5.30000            :Elevation of Kelly Bushing Above Permanent Datum
EDF             .m                      5.30000            :Elevation of Drill Floor Above Permanent Datum
EGL             .m                      0.00000            :Elevation of Ground Level Above Permanent Datum
ECF             .m                      -999.25            :Elevation of Casing Flange above Permanent Datum
#--------------------------------------------------
~CURVE INFORMATION
#MNEM           .UNIT                  API CODE            :DESCRIPTION
#----            ------          --------------            -----------------------------
DEPT            .m                                         :                                                        Depth Index
CFTC            .1/s                                       :        (HGNS-H)                (6in)                   Corrected Far Thermal Count Rate
GR              .gAPI                                      :        (HGNS-H)                (6in)                   Gamma Ray
TNPH            .m3/m3                                     :        (HGNS-H)                (6in)                   Thermal Neutron Porosity (Ratio Method) in Selected Lithology
CBL             .mV                                        :        (ASLT-A)                (6in)                   CBL Amplitude
CBLF            .mV                                        :        (ASLT-A)                (6in)                   CBL Amplitude (Fluid Compensated)
TT              .us                                        :        (ASLT-A)                (6in)                   Transit Time for CBL
CCL             .                                          :        (CAL-YA)                (1in)                   Casing Collar Locator Amplitude
#-------------------------------------------------------------
#            DEPT         CFTC           GR         TNPH          CBL         CBLF           TT          CCL 
#                     (HGNS-H)     (HGNS-H)     (HGNS-H)     (ASLT-A)     (ASLT-A)     (ASLT-A)     (CAL-YA) 
#                                                                                                            
#                        (6in)        (6in)        (6in)        (6in)        (6in)        (6in)        (1in) 
~ASCII
# ...
       1528.11480    589.98650     75.28660      0.35325      5.72027      4.57622    281.07220      0.02035
       1528.26720    590.83580     72.33572      0.35014      5.73920      4.59136    281.36620      0.01668
       1528.41960    624.04330     70.08749      0.32050      5.39567      4.31653    282.81650      0.02891
       1528.57200    626.86610     66.89064      0.31952      5.17318      4.13855    281.56880      0.02175
       1528.72440    614.66130     71.07108      0.33333      5.01147      4.00917    283.28330      0.01471
       1528.87680    622.76620     67.62805      0.33795      4.81312      3.85049    282.65680      0.00014
       1529.02920    657.65450     64.50113      0.32655      4.41140      3.52912    283.46230      0.02641
       1529.18160    697.69540     58.59924      0.31054      4.08414      3.26732    283.96170      0.01060
       1529.33400    734.30460     61.30426      0.29212      3.99031      3.19225    283.49570      0.01761
       1529.48640    720.77860     70.57915      0.29809      3.89466      3.11573    284.70290      0.00773
       1529.63880    678.31410     75.14616      0.32973      3.74635      2.99708    283.94760      0.02109
       1529.79120    671.75430     76.13002      0.32879      3.46509      2.77207    285.29720      0.03162
       1529.94360    698.28190     72.68735      0.30568      3.33091      2.66473    285.55620      0.01688
       1530.09600    742.60460     71.00066      0.28535      3.30394      2.64315    283.57670      0.01146
       1530.24840    783.36360     65.09866      0.27368      3.04286      2.43429    286.58940      0.00560
       1530.40080    817.71670     65.09866      0.26535      2.92233      2.33787    285.93300      0.02545
       1530.55320    899.74150     61.72639      0.24404      3.06454      2.45163    284.14250      0.01856
       1530.70560    916.80050     60.74266      0.23923      3.11591      2.49273    285.45160      0.01852
       1530.85800    897.94200     63.20158      0.23814      3.16369      2.53095    285.64600      0.00285
       1531.01040    814.63840     68.85762      0.25990      3.36294      2.69036    284.69020     -0.00573
       1531.16280    747.86450     74.09199      0.28041      3.51646      2.81317    285.17990      0.02508
       1531.31520    677.95180     72.86253      0.29714      3.56552      2.85241    285.24190      0.01283
       1531.46760    648.68600     72.37096      0.30006      3.55997      2.84798    285.76880      0.00641
       1531.62000    583.84910     74.90064      0.34648      3.47834      2.78267    286.17290      0.02807
       1531.77240    577.35820     75.14642      0.35051      3.42464      2.73971    286.45200      0.03257
       1531.92480    553.83250     73.91645      0.36350      3.49539      2.79632    285.77350     -0.00447
       1532.07720    582.42070     77.85122      0.33209      3.55243      2.84195    284.99210     -0.00916
       1532.22960    555.71800     78.34339      0.35911      3.54180      2.83344    285.98580      0.01667
       1532.38200    520.17270     77.60561      0.38745      3.64458      2.91567    284.63260      0.03379
       1532.53440    490.77450     72.54691      0.41986      3.88962      3.11169    284.30640      0.01624
       1532.68680    487.85170     80.48641      0.42523      4.09430      3.27544    282.75480      0.00029
       1532.83920    522.62290     85.15891      0.39462      4.22758      3.38206    283.19970     -0.01473
       1532.99160    584.22300     87.61782      0.34188      4.53975      3.63180    281.33230      0.02986
       1533.14400    620.38580     81.15338      0.32999      4.89781      3.91825    280.37840      0.01581
       1533.29640    661.78170     75.74331      0.30438      4.97894      3.98315    280.51530     -0.00844
       1533.44880    661.81210     76.97286      0.30799      4.84645      3.87716    280.52750      0.02789
       1533.60120    659.37000     73.60046      0.30336      4.64279      3.71423    281.07760      0.02089
       1533.75360    640.33540     77.28932      0.31105      4.41216      3.52973    281.03160      0.01152
       1533.90600    603.80650     72.37106      0.34114      4.02699      3.22159    282.03780      0.01215
       1534.05840    613.56650     76.48135      0.32962      3.59604      2.87684    284.03100      0.01427
       1534.21080    609.86360     74.83024      0.33839      3.40138      2.72111    283.72730      0.03364
       1534.36320    648.00950     78.27292      0.32195      3.27922      2.62337    284.32750      0.02371
       1534.51560    671.49880     72.86264      0.31267      3.18429      2.54743    285.81210      0.01744
       1534.66800    672.28990     75.67323      0.30403      3.17907      2.54326    285.21250     -0.00101
       1534.82040    670.89700     77.88674      0.30717      3.07816      2.46253    285.88770      0.02903
       1534.97280    623.02250     79.85415      0.33662      2.87271      2.29816    286.92170      0.02145
       1535.12520    599.97440     79.92430      0.33731      2.78377      2.22701    288.10570     -0.01330
       1535.27760    542.18980     85.05349      0.38061      2.87059      2.29647    286.56200      0.01509
       1535.43000    517.09930     83.33200      0.40724      2.92112      2.33690    287.07920      0.02919
       1535.58240    536.89990     77.07864      0.37927      2.99015      2.39212    286.75790      0.02639
       1535.73480    558.51210     67.27682      0.35462      3.16258      2.53006    285.76610      0.00425
       1535.88720    575.55050     68.99832      0.34511      3.24268      2.59415    284.97690      0.01718
       1536.03960    570.67470     74.05690      0.36017      3.28154      2.62523    285.44280      0.02581
       1536.19200    615.58070     73.31918      0.32866      3.49413      2.79530    284.50580      0.02073
       1536.34440    651.78630     71.10572      0.31018      3.73450      2.98760    283.32320      0.00953
       1536.49680    690.00430     73.53018      0.29407      3.64695      2.91756    284.06050      0.00014
       1536.64920    663.18130     72.26548      0.31542      3.30773      2.64618    285.26870      0.03664
       1536.80160    654.85630     73.74089      0.31879      3.22649      2.58119    285.38460      0.02016
       1536.95400    648.30170     67.83883      0.31641      3.47997      2.78398    283.82650      0.00057
       1537.10640    665.34160     71.77348      0.30603      3.77245      3.01796    283.26680      0.00341
       1537.25880    674.58830     70.79007      0.29586      4.06482      3.25185    282.24470      0.02389
       1537.41120    629.95980     77.92194      0.33210      4.18052      3.34442    282.01130      0.03562
       1537.56360    627.54660     78.20297      0.33263      4.07801      3.26241    282.97100      0.00531
       1537.71600    613.67690     83.47247      0.34883      3.99634      3.19707    283.02920      0.00988
       1537.86840    640.46700     86.66917      0.32937      3.90695      3.12556    282.55760      0.01474
       1538.02080    616.12350     92.81726      0.34209      3.71678      2.97342    282.30960      0.03362
       1538.17320    594.78010     91.97412      0.35569      3.49721      2.79777    283.83390      0.01945
       1538.32560    547.72850     90.49859      0.39452      3.49604      2.79683    283.76470     -0.00981
       1538.47800    517.72900     87.05602      0.41947      3.85267      3.08214    282.67550      0.02503
       1538.63040    517.40390     89.30480      0.40519      4.01837      3.21469    281.89930      0.03443
       1538.78280    543.11290     87.09127      0.38068      3.92517      3.14014    283.67310      0.02929
       1538.93520    563.36240     89.79603      0.35532      4.28520      3.42816    290.63860     -0.00257
       1539.08760    560.90920     83.33144      0.34905      4.74859      3.79887    285.64630      0.03578
       1539.24000    536.03300     80.87239      0.36430      4.85175      3.88140    285.70200      1.17700
