~VERSION INFORMATION 
VERS  .    2.0                                     :CWLS Log ASCII Standard - VERSION 2.0
WRAP  .    NO                                      :One Line per Depth step
PROD  .    Schlumberger Technology Corp.           :LAS Producer
PROG  .    Horizon LASWriter 6.2.64464.3100        :LAS Program name and version
SOURCE.    1-Log[5]/Up                             :Run&Pass Information
CREA  .    01/05/2017                              :LAS Creation date {MM/DD/YYYY}
#--------------------------------------------------
~WELL INFORMATION 
#MNEM           .UNIT                      DATA            :DESCRIPTION
#----            ------          --------------            -----------------------------
STRT            .m                     16.91640            :START DEPTH
STOP            .m                   1777.89840            :STOP DEPTH
STEP            .m                       0.1524            :STEP
NULL            .                       -999.25            :NULL VALUE
COMP            .                      YPF S.A.            :COMPANY
WELL            .                 YPF.SC.LC-941            :WELL NAME
FLD             .                 LOMAS DEL CUY            :FIELD NAME
RIGN            .                                          :Rig Name
RIGTYP          .                                          :Rig Type
SON             .                                          :Service Order Number
SRVC            .                  Schlumberger            :SERVICE COMPANY
DATE            .                    01/05/2017            :LOG DATE(Composite Date for Composite LAP) (MM/DD/YYYY)
CLAB            .                    Provincia:            :County Label
CNTY            .                    SANTA CRUZ            :COUNTY
SLAB            .                          UWI:            :State/Province Label
STAT            .                 No disponible            :STATE or PROVINCE
PROV            .                 No disponible            :STATE or PROVINCE
CTRY            .                     ARGENTINA            :COUNTRY
CONT_REGION     .                                          :Continent Region
SECT            .                       RIGLESS            :Section
TOWN            .                NT Ground Level G.L       :Township
RANG            .                M.R Drilling Floor D.F    :Range
API             .                                          :API NUMBER
UWI             .                                          :UNIQUE WELL ID
LUL             .                  CANADON SECO            :Logging Unit Location
LUN             .                          7008            :Logging Unit Number
LOC             .                          ARCS            :FIELD LOCATION
FL1             .                X: 4.856.702,40           :Field Location Line 1
FL2             .                Y: 2.494.852,45           :Field Location Line 2
LATI            .deg                 0° 0' 0" N            :LATITUDE
LONG            .deg                 0° 0' 0" E            :LONGITUDE
PDAT            .                            GL            :Local Permanent Datum
LMF             .                            GL            :Logging Measured From
APD             .m                      0.00000            :Elevation of Depth Reference (LMF) Above Permanent Datum
EPD             .m                    573.57000            :Elevation of Permanent Datum (PDAT) above Mean Sea Level
EKB             .m                      5.30000            :Elevation of Kelly Bushing Above Permanent Datum
EDF             .m                      5.30000            :Elevation of Drill Floor Above Permanent Datum
EGL             .m                      0.00000            :Elevation of Ground Level Above Permanent Datum
ECF             .m                      -999.25            :Elevation of Casing Flange above Permanent Datum
#--------------------------------------------------
~CURVE INFORMATION
#MNEM           .UNIT                  API CODE            :DESCRIPTION
#----            ------          --------------            -----------------------------
DEPT            .m                                         :                                                        Depth Index
CFTC            .1/s                                       :        (HGNS-H)                (6in)                   Corrected Far Thermal Count Rate
GR              .gAPI                                      :        (HGNS-H)                (6in)                   Gamma Ray
TNPH            .m3/m3                                     :        (HGNS-H)                (6in)                   Thermal Neutron Porosity (Ratio Method) in Selected Lithology
CBL             .mV                                        :        (ASLT-A)                (6in)                   CBL Amplitude
CBLF            .mV                                        :        (ASLT-A)                (6in)                   CBL Amplitude (Fluid Compensated)
TT              .us                                        :        (ASLT-A)                (6in)                   Transit Time for CBL
CCL             .                                          :        (CAL-YA)                (1in)                   Casing Collar Locator Amplitude
#-------------------------------------------------------------
#            DEPT         CFTC           GR         TNPH          CBL         CBLF           TT          CCL 
#                     (HGNS-H)     (HGNS-H)     (HGNS-H)     (ASLT-A)     (ASLT-A)     (ASLT-A)     (CAL-YA) 
#                                                                                                            
#                        (6in)        (6in)        (6in)        (6in)        (6in)        (6in)        (1in) 
~ASCII
# ...
       1302.56280    528.76100     77.95705      0.38791     15.70574     12.56459    278.25700      0.01898
       1302.71520    536.06630     75.53297      0.38007     15.77492     12.61993    278.28900      0.03101
       1302.86760    572.51010     76.51687      0.35080     15.13318     12.10654    278.03540      0.01717
       1303.02000    560.39010     73.81170      0.36969     14.24794     11.39835    278.35110      0.01228
       1303.17240    598.24950     67.87419      0.34832     13.73016     10.98413    278.27940      0.02208
       1303.32480    591.79160     66.39880      0.36033     13.33406     10.66725    278.19780      0.04021
       1303.47720    597.40880     65.41536      0.35537     12.60905     10.08724    278.23060      0.03288
       1303.62960    599.27920     73.53081      0.34992     11.88658      9.50927    278.07760      0.01070
       1303.78200    606.61310     71.07136      0.33168     11.94159      9.55327    277.61780      0.02169
       1303.93440    607.43930     74.54943      0.34085     12.58318     10.06654    278.15660      0.03889
       1304.08680    585.15890     75.28721      0.36309     13.32652     10.66121    278.23330      0.01681
       1304.23920    574.58340     76.27099      0.38075     13.94551     11.15641    278.34130      0.01043
       1304.39160    581.05720     76.97340      0.38274     14.36178     11.48942    278.39710      0.00768
       1304.54400    583.85210     76.48173      0.38969     14.45834     11.56667    278.76480      0.02769
       1304.69640    567.61960     77.46533      0.39308     13.51542     10.81233    278.42820      0.02125
       1304.84880    564.37600     73.67088      0.38287     11.90617      9.52494    278.54920     -0.01139
       1305.00120    544.16130     71.94971      0.38380     11.20914      8.96732    278.64480      0.01905
       1305.15360    538.49080     72.19549      0.36922     11.82168      9.45735    278.95540      0.03090
       1305.30600    503.10740     78.69495      0.39835     12.35082      9.88065    278.69510      0.02117
       1305.45840    448.88460     78.94044      0.46343     11.94657      9.55726    278.76210      0.01357
       1305.61080    448.91820     86.81012      0.45537     11.86936      9.49549    278.70500      0.03449
       1305.76320    442.23810     85.08891      0.47830     12.29233      9.83386    278.87950      0.02553
       1305.91560    465.67140     84.84312      0.45083     11.95735      9.56588    278.34160      0.02682
       1306.06800    443.00860     83.33237      0.48373     11.29908      9.03926    278.51100      0.01241
       1306.22040    439.53020     84.80782      0.48372     10.78738      8.62990    278.88000     -0.00568
       1306.37280    411.28410     88.00489      0.54431     10.29295      8.23436    278.63670      0.02251
       1306.52520    412.97520     87.54831      0.51844     10.38488      8.30790    278.30190      0.02247
       1306.67760    419.67370     85.08891      0.48514     10.62080      8.49664    278.44130      0.01813
       1306.83000    439.03610     86.07248      0.44525     10.14355      8.11484    278.29980     -0.00493
       1306.98240    433.29270     80.34604      0.45731      9.72051      7.77641    278.48050      0.03144
       1307.13480    404.99990     78.87055      0.49743      9.17753      7.34202    278.85890      0.04544
       1307.28720    403.82130     80.10015      0.50299      8.40228      6.72182    286.95970      0.01749
       1307.43960    403.83080     74.26810      0.50082      8.49846      6.79877    282.80680      0.00626
       1307.59200    420.81850     76.48153      0.46075      9.00762      7.20610    283.06580     -0.04060
       1307.74440    397.77750     74.26804      0.49375      9.69789      7.75831    283.35810     -0.16366
       1307.89680    380.03130     79.43233      0.54769     10.94570      8.75656    283.54900      0.01558
       1308.04920    415.60160     80.24039      0.48162     12.14529      9.71623    288.62620      0.03642
       1308.20160    457.60050     77.53542      0.44306     12.86109     10.28887    279.51840      0.03105
       1308.35400    492.06330     81.47047      0.42315     13.62762     10.90210    280.10210      0.01242
       1308.50640    492.05560     79.18696      0.43887     14.76000     11.80800    280.00360      0.00700
       1308.65880    539.01110     80.90816      0.40686     16.02428     12.81942    279.51100      0.03882
       1308.81120    600.08980     74.76011      0.36230     17.12952     13.70362    279.38980     -0.01402
       1308.96360    684.54380     74.76009      0.31169     18.61579     14.89263    279.30840      0.00942
       1309.11600    704.84050     70.72009      0.29804     20.63291     16.50632    279.18430      0.01927
       1309.26840    673.28600     72.44158      0.31410     21.83028     17.46423    279.21480      0.03363
       1309.42080    603.41890     72.44160      0.35627     22.23367     17.78694    279.42090      0.02963
       1309.57320    545.07790     75.74416      0.38777     22.06470     17.65176    279.44850      0.02547
       1309.72560    499.64570     75.74397      0.39640     20.65422     16.52337    279.17110     -0.01828
       1309.87800    468.89890     76.62211      0.40578     18.64859     14.91887    278.95540      0.02154
       1310.03040    442.19720     75.88434      0.42290     16.89614     13.51691    278.79490      0.02311
       1310.18280    473.73480     77.85179      0.37550     15.85870     12.68696    279.24780      0.03363
       1310.33520    451.89070     76.48161      0.40097     15.35811     12.28649    279.28120      0.01958
       1310.48760    444.27320     77.71125      0.41644     14.93643     11.94915    279.08730     -0.00218
       1310.64000    420.02080     78.94080      0.45946     14.51538     11.61231    279.15230     -0.00247
       1310.79240    429.73050     80.41640      0.45399     14.18114     11.34491    279.19120      0.03171
       1310.94480    453.51520     81.64601      0.42180     14.21584     11.37267    279.56030      0.01739
       1311.09720    476.14560     79.04642      0.40072     14.41168     11.52934    279.57330     -0.01072
       1311.24960    490.69890     78.55466      0.39154     14.87751     11.90201    279.49730      0.02365
       1311.40200    519.07140     72.40639      0.37378     15.89381     12.71504    279.96630      0.03276
       1311.55440    521.62960     72.54674      0.37203     16.76822     13.41458    279.86110      0.00848
       1311.70680    489.29510     73.28470      0.40685     16.92377     13.53901    279.87020      0.00526
       1311.85920    495.76870     84.10541      0.40055     16.88075     13.50460    279.54650      0.02633
       1312.01160    492.39860     82.84062      0.41675     16.82716     13.46173    279.62810      0.02987
       1312.16400    533.63430     78.90568      0.37526     16.59876     13.27901    279.45540      0.02295
       1312.31640    505.25450     72.51158      0.41524     16.71021     13.36816    279.65880      0.01232
       1312.46880    521.60640     74.26849      0.40678     17.12281     13.69825    279.42870      0.02462
       1312.62120    520.80460     79.43268      0.40326     17.26930     13.81544    279.51590      0.02581
       1312.77360    567.80390     78.94103      0.35541     17.10767     13.68614    279.57500      0.02373
       1312.92600    583.12130     83.08655      0.34097     16.64900     13.31920    279.01150      0.01925
       1313.07840    604.20480     83.08682      0.32547     15.75097     12.60077    278.83630      0.00814
       1313.23080    583.13860     83.33259      0.33728     14.90877     11.92701    278.93520      0.02681
       1313.38320    556.33590     78.44936      0.37215     14.05689     11.24552    278.94320      0.02718
       1313.53560    515.48720     72.54682      0.42166     12.86733     10.29386    278.86400      0.01358
       1313.68800    534.96660     67.87440      0.39705     12.12665      9.70132    278.62790      0.01145
