~VERSION INFORMATION 
VERS  .    2.0                                     :CWLS Log ASCII Standard - VERSION 2.0
WRAP  .    NO                                      :One Line per Depth step
PROD  .    Schlumberger Technology Corp.           :LAS Producer
PROG  .    Horizon LASWriter 6.2.64464.3100        :LAS Program name and version
SOURCE.    1-Log[5]/Up                             :Run&Pass Information
CREA  .    01/05/2017                              :LAS Creation date {MM/DD/YYYY}
#--------------------------------------------------
~WELL INFORMATION 
#MNEM           .UNIT                      DATA            :DESCRIPTION
#----            ------          --------------            -----------------------------
STRT            .m                     16.91640            :START DEPTH
STOP            .m                   1777.89840            :STOP DEPTH
STEP            .m                       0.1524            :STEP
NULL            .                       -999.25            :NULL VALUE
COMP            .                      YPF S.A.            :COMPANY
WELL            .                 YPF.SC.LC-941            :WELL NAME
FLD             .                 LOMAS DEL CUY            :FIELD NAME
RIGN            .                                          :Rig Name
RIGTYP          .                                          :Rig Type
SON             .                                          :Service Order Number
SRVC            .                  Schlumberger            :SERVICE COMPANY
DATE            .                    01/05/2017            :LOG DATE(Composite Date for Composite LAP) (MM/DD/YYYY)
CLAB            .                    Provincia:            :County Label
CNTY            .                    SANTA CRUZ            :COUNTY
SLAB            .                          UWI:            :State/Province Label
STAT            .                 No disponible            :STATE or PROVINCE
PROV            .                 No disponible            :STATE or PROVINCE
CTRY            .                     ARGENTINA            :COUNTRY
CONT_REGION     .                                          :Continent Region
SECT            .                       RIGLESS            :Section
TOWN            .                NT Ground Level G.L       :Township
RANG            .                M.R Drilling Floor D.F    :Range
API             .                                          :API NUMBER
UWI             .                                          :UNIQUE WELL ID
LUL             .                  CANADON SECO            :Logging Unit Location
LUN             .                          7008            :Logging Unit Number
LOC             .                          ARCS            :FIELD LOCATION
FL1             .                X: 4.856.702,40           :Field Location Line 1
FL2             .                Y: 2.494.852,45           :Field Location Line 2
LATI            .deg                 0° 0' 0" N            :LATITUDE
LONG            .deg                 0° 0' 0" E            :LONGITUDE
PDAT            .                            GL            :Local Permanent Datum
LMF             .                            GL            :Logging Measured From
APD             .m                      0.00000            :Elevation of Depth Reference (LMF) Above Permanent Datum
EPD             .m                    573.57000            :Elevation of Permanent Datum (PDAT) above Mean Sea Level
EKB             .m                      5.30000            :Elevation of Kelly Bushing Above Permanent Datum
EDF             .m                      5.30000            :Elevation of Drill Floor Above Permanent Datum
EGL             .m                      0.00000            :Elevation of Ground Level Above Permanent Datum
ECF             .m                      -999.25            :Elevation of Casing Flange above Permanent Datum
#--------------------------------------------------
~CURVE INFORMATION
#MNEM           .UNIT                  API CODE            :DESCRIPTION
#----            ------          --------------            -----------------------------
DEPT            .m                                         :                                                        Depth Index
CFTC            .1/s                                       :        (HGNS-H)                (6in)                   Corrected Far Thermal Count Rate
GR              .gAPI                                      :        (HGNS-H)                (6in)                   Gamma Ray
TNPH            .m3/m3                                     :        (HGNS-H)                (6in)                   Thermal Neutron Porosity (Ratio Method) in Selected Lithology
CBL             .mV                                        :        (ASLT-A)                (6in)                   CBL Amplitude
CBLF            .mV                                        :        (ASLT-A)                (6in)                   CBL Amplitude (Fluid Compensated)
TT              .us                                        :        (ASLT-A)                (6in)                   Transit Time for CBL
CCL             .                                          :        (CAL-YA)                (1in)                   Casing Collar Locator Amplitude
#-------------------------------------------------------------
#            DEPT         CFTC           GR         TNPH          CBL         CBLF           TT          CCL 
#                     (HGNS-H)     (HGNS-H)     (HGNS-H)     (ASLT-A)     (ASLT-A)     (ASLT-A)     (CAL-YA) 
#                                                                                                            
#                        (6in)        (6in)        (6in)        (6in)        (6in)        (6in)        (1in) 
~ASCII
# ...
        716.12760    429.27370     73.78002      0.39400     32.17838     25.74270    280.47370      0.01550
        716.28000    453.50960     72.93702      0.36409     32.41779     25.93423    280.42730      0.00776
        716.43240    447.88580     71.95312      0.38396     31.18929     24.95143    280.29380      0.01267
        716.58480    459.19040     71.95330      0.37999     29.53741     23.62993    280.52790      0.03270
        716.73720    488.33790     68.86148      0.37940     28.61210     22.88968    280.34950      0.01649
        716.88960    493.19770     70.82883      0.39238     28.35458     22.68366    280.27620      0.02172
        717.04200    538.58260     70.58285      0.36984     27.95790     22.36632    280.29860     -0.00220
        717.19440    542.62070     68.36953      0.37947     26.44274     21.15419    280.40170      0.02525
        717.34680    598.50010     65.41848      0.34060     23.67623     18.94099    280.31950      0.01689
        717.49920    600.55460     58.77807      0.33503     21.28536     17.02829    280.38960      0.00088
        717.65160    593.27060     63.94254      0.34266     19.51282     15.61026    280.13450      0.01734
        717.80400    569.74020     65.41815      0.36709     17.85869     14.28695    279.88420      0.02941
        717.95640    554.68530     71.56646      0.38855     16.74027     13.39222    279.97110      0.03798
        718.10880    566.04030     71.81226      0.38026     15.97184     12.77748    279.99100      0.00941
        718.26120    588.77370     72.30418      0.36122     15.40584     12.32467    279.85320      0.00251
        718.41360    610.68400     65.13702      0.35038     15.51255     12.41004    279.90370      0.02491
        718.56600    634.20580     62.92365      0.33741     16.51586     13.21269    279.95980      0.02475
        718.71840    619.60330     62.67758      0.34475     17.76304     14.21043    279.70390      0.00029
        718.87080    606.63440     70.33649      0.36377     18.83292     15.06634    279.98430      0.01630
        719.02320    606.62770     67.38548      0.36354     20.24957     16.19966    279.94950      0.02630
        719.17560    595.27730     65.90975      0.37282     22.32695     17.86156    280.06050      0.01437
        719.32800    592.84520     65.91009      0.36624     24.08219     19.26575    280.17140      0.01163
        719.48040    560.86320     66.89375      0.38881     24.34226     19.47381    280.03100      0.03112
        719.63280    534.15140     65.91022      0.38453     24.09670     19.27736    280.12630      0.02819
        719.78520    479.90450     62.22107      0.41517     24.28732     19.42985    280.20380      0.02320
        719.93760    426.08390     62.71306      0.44434     23.88967     19.11174    279.89430      0.01477
        720.09000    409.08620     64.68037      0.43874     22.79648     18.23718    279.66620      0.00543
        720.24240    406.68700     66.40193      0.41715     22.09447     17.67558    279.53050      0.02335
        720.39480    401.05490     71.95309      0.42768     22.56359     18.05087    279.81410      0.02757
        720.54720    372.77900     70.96946      0.47440     23.72694     18.98155    279.74920      0.02255
        720.69960    365.50910     69.98592      0.49631     24.47350     19.57880    279.67740      0.00577
        720.85200    353.39430     64.92643      0.53454     25.45537     20.36430    279.99440      0.02575
        721.00440    355.82220     67.87758      0.51618     27.34617     21.87694    280.16350      0.02962
        721.15680    341.27940     64.42747      0.56610     28.81287     23.05029    280.29750      0.02963
        721.30920    350.02070     64.18180      0.54476     29.09778     23.27822    280.25630     -0.00178
        721.46160    342.77860     69.34636      0.56582     28.87586     23.10069    280.18980     -0.01601
        721.61400    352.44890     76.73097      0.50126     28.45608     22.76487    280.46730      0.03852
        721.76640    366.28050     76.97668      0.49547     27.60889     22.08711    280.49640      0.02543
        721.91880    385.62660     68.86111      0.44916     26.40477     21.12382    280.22740      0.01925
        722.07120    381.59630     61.72945      0.44547     25.07962     20.06369    280.28810      0.01072
        722.22360    381.59940     60.88608      0.45643     23.56783     18.85427    280.27780      0.03710
        722.37600    376.75830     62.85337      0.47709     22.14748     17.71799    280.46890      0.01840
        722.52840    389.68430     68.26371      0.44966     21.20818     16.96654    280.28070      0.01743
        722.68080    394.53590     67.38573      0.45311     20.45749     16.36599    280.23020     -0.00703
        722.83320    384.28130     66.89384      0.49590     19.78844     15.83075    280.37340      0.01991
        722.98560    371.06350     66.64798      0.51439     19.45909     15.56727    280.32930      0.02373
        723.13800    344.43290     75.25546      0.63642     19.98586     15.98869    280.33810     -0.00998
        723.29040    358.72730     75.00941      0.55821     21.07461     16.85969    280.29490      0.00958
        723.44280    349.33350     72.05817      0.58777     21.54772     17.23817    280.37510     -0.00295
        723.59520    398.86500     65.17204      0.45236     21.52250     17.21800    280.61630      0.03320
        723.74760    389.18880     64.18840      0.47796     21.54233     17.23386    280.45850      0.03188
        723.90000    415.01870     68.61494      0.43658     21.49953     17.19963    280.36770      0.03158
        724.05240    395.38170     68.61504      0.47037     21.37146     17.09717    280.49150      0.00295
        724.20480    414.76500     67.87738      0.42790     21.43882     17.15105    280.37690      0.02295
        724.35720    398.62160     60.00782      0.43700     21.55389     17.24311    280.42940      0.02292
        724.50960    375.17540     57.79438      0.45949     21.35238     17.08190    280.38420      0.01433
        724.66200    329.97370     61.23736      0.54819     21.08896     16.87117    280.14720      0.01581
        724.81440    326.73010     62.64267      0.54348     21.08958     16.87167    280.27760      0.01888
        724.96680    318.67430     62.15080      0.57649     21.28484     17.02787    280.25570      0.04082
        725.11920    335.61840     53.78909      0.52023     21.12214     16.89772    280.13750      0.04920
        725.27160    335.62830     57.05651      0.51924     20.51439     16.41151    280.10670      0.00264
        725.42400    357.44500     59.76173      0.47637     20.33218     16.26574    280.19460      0.02125
        725.57640    365.51680     61.48329      0.46915     20.74230     16.59384    280.23780      0.02114
        725.72880    392.76380     59.76150      0.44227     21.18924     16.95139    280.30000      0.01439
        725.88120    398.37090     60.25367      0.44262     20.92047     16.73638    280.42980      0.01526
        726.03360    427.43970     69.84485      0.41604     19.42495     15.53996    280.32850      0.01990
        726.18600    409.09430     77.22277      0.45356     17.57281     14.05825    280.36540      0.02139
        726.33840    427.70810     76.23864      0.43141     16.10777     12.88621    280.17900      0.01858
        726.49080    405.08300     69.10701      0.46155     14.80840     11.84672    280.02180     -0.00934
        726.64320    418.80760     61.23715      0.43495     14.00747     11.20598    280.05050      0.02494
        726.79560    391.32300     61.16695      0.47569     15.07340     12.05872    279.97090      0.05224
        726.94800    375.19530     62.15018      0.50049     16.01306     12.81045    287.40590      0.02317
        727.10040    367.90870     60.92089      0.50302     15.06939     12.05551    284.25140      0.01953
        727.25280    382.46120     54.84311      0.47253     15.24758     12.19807    284.26420      0.00190
