~VERSION INFORMATION 
VERS  .    2.0                                     :CWLS Log ASCII Standard - VERSION 2.0
WRAP  .    NO                                      :One Line per Depth step
PROD  .    Schlumberger Technology Corp.           :LAS Producer
PROG  .    Horizon LASWriter 8.0.95333.3100        :LAS Program name and version
SOURCE.    CARRERA_02: CBL-VDL-NL-GR-Log[4]/Up     :Run&Pass Information
CREA  .    06/11/2018                              :LAS Creation date {MM/DD/YYYY}
#--------------------------------------------------
~WELL INFORMATION 
#MNEM           .UNIT                      DATA            :DESCRIPTION
#----            ------          --------------            -----------------------------
STRT            .m                    454.91400            :START DEPTH
STOP            .m                   2158.89840            :STOP DEPTH
STEP            .m                       0.1524            :STEP
NULL            .                       -999.25            :NULL VALUE
COMP            .                       YPF S.A            :COMPANY
WELL            .                YPF.SC.ECH-212            :WELL NAME
FLD             .                ESTANCIA CHOLITA          :FIELD NAME
RIGN            .                                          :Rig Name
RIGTYP          .                                          :Rig Type
SON             .                 TICKET NUMBER            :Service Order Number
SRVC            .                  Schlumberger            :SERVICE COMPANY
DATE            .                    06/08/2018            :LOG DATE(Composite Date for Composite LAP) (MM/DD/YYYY)
CLAB            .                       County:            :County Label
CNTY            .                    SANTA CRUZ            :COUNTY
SLAB            .                          UWI:            :State/Province Label
STAT            .                AR030000968000            :STATE or PROVINCE
PROV            .                AR030000968000            :STATE or PROVINCE
CTRY            .                     ARGENTINA            :COUNTRY
CONT_REGION     .                                          :Continent Region
SECT            .                       Rigless            :Section
TOWN            .                    4856781.85            :Township
RANG            .                    2459103.27            :Range
API             .                                          :API NUMBER
UWI             .                                          :UNIQUE WELL ID
LUL             .                          ARCS            :Logging Unit Location
LUN             .                          7062            :Logging Unit Number
LOC             .                          ARCS            :FIELD LOCATION
FL1             .                                          :Field Location Line 1
FL2             .                                          :Field Location Line 2
LATI            .deg                 -48.567818            :LATITUDE
LONG            .deg                  24.591030            :LONGITUDE
PDAT            .                            GL            :Local Permanent Datum
LMF             .                            GL            :Logging Measured From
APD             .m                      0.00000            :Elevation of Depth Reference (LMF) Above Permanent Datum
EPD             .m                    554.51000            :Elevation of Permanent Datum (PDAT) above Mean Sea Level
EKB             .m                      0.00000            :Elevation of Kelly Bushing Above Permanent Datum
EDF             .m                      0.00000            :Elevation of Drill Floor Above Permanent Datum
EGL             .m                      0.00000            :Elevation of Ground Level Above Permanent Datum
ECF             .m                      -999.25            :Elevation of Casing Flange above Permanent Datum
#--------------------------------------------------
~CURVE INFORMATION
#MNEM           .UNIT                  API CODE            :DESCRIPTION
#----            ------          --------------            -----------------------------
DEPT            .m                                         :                                                        Depth Index
CBLF            .mV                                        :        (DSLT-H)                (6in)                   CBL Amplitude (Fluid Compensated)
TT              .us                                        :        (DSLT-H)                (6in)                   Transit Time for CBL
CTEM            .degC                                      :        (HGNS-H)                (6in)                   Cartridge Temperature
CFTC            .1/s                                       :        (HGNS-H)                (2in)                   Corrected Far Thermal Count Rate
CCL             .                                          :        (CAL-YA)                (1in)                   Casing Collar Locator Amplitude
TENS            .lbf                                       :        (WLWorkflow)            (6in)                   Cable Tension
DEPTH           .m                                         :        (WLWorkflow)            (6in)                   Depth Index
SDEV            .deg                                       :        (HGNS-H)                (6in)                   Sonde Deviation
TNPH            .V/V                                       :        (HGNS-H)                (6in)                   Thermal Neutron Porosity (Ratio Method) in Selected Lithology
GR              .gAPI                                      :        (HGNS-H)                (6in)                   Gamma Ray
#-------------------------------------------------------------
#            DEPT         CBLF           TT         CTEM         CFTC          CCL         TENS        DEPTH         SDEV         TNPH           GR 
#                     (DSLT-H)     (DSLT-H)     (HGNS-H)     (HGNS-H)     (CAL-YA)  (WLWorkflo)  (WLWorkflo)     (HGNS-H)     (HGNS-H)     (HGNS-H) 
#                                                                                                                                                   
#                        (6in)        (6in)        (6in)        (2in)        (1in)        (6in)        (6in)        (6in)        (6in)        (6in) 
~ASCII
# ...
        907.54200      7.12397    267.43920     63.36563    479.35520      0.21375   1287.12494    907.54152      -999.25      0.35526     79.93001
        907.69440      7.78818    267.98500     63.36563    455.69420      0.03265   1304.24999    907.68853      -999.25      0.37594     78.87647
        907.84680      8.54793    267.91020     63.36563    439.26090      0.07659   1309.33337    907.84749      -999.25      0.39739     74.42754
        907.99920      9.31301    267.71880     63.36563    424.75270      0.16167   1287.12494    908.00666      -999.25      0.41634     76.41785
        908.15160     10.23258    267.66010     63.36563    440.75820     -0.03266   1300.37496    908.15525      -999.25      0.39350     76.41789
        908.30400     10.76297    267.83880     63.36563    456.79260      0.12943   1313.87496    908.30321      -999.25      0.37996     77.58868
        908.45640     10.33849    267.78860     63.36563    436.20630      0.01582   1307.00008    908.45243      -999.25      0.40923     79.43246
        908.60880      9.44117    268.02190     63.36563    418.66990      0.07994   1296.22229    908.60892      -999.25      0.43914     79.43262
        908.76120      8.67850    268.42730     63.36563    417.89600      0.14355   1305.37493    908.76453      -999.25      0.43484     73.75462
        908.91360      8.60366    268.37050     63.64525    455.68430     -0.06029   1311.62507    908.91249      -999.25      0.39285     69.45211
        909.06600      9.25923    268.85420     63.64525    468.66820      0.14820   1305.99990    909.06140      -999.25      0.38257     68.13484
        909.21840     10.03748    268.72490     63.64525    475.56650     -0.10200   1316.22219    909.22078      -999.25      0.36823     67.72514
        909.37080     11.15894    268.78220     63.64525    446.17160     -0.01628   1317.12502    909.37921      -999.25      0.39120     66.49607
        909.52320     12.90206    268.94310     63.64525    451.86350     -0.08803   1310.37491    909.52780      -999.25      0.38652     65.17914
        909.67560     14.59821    269.53640     63.64525    411.42210     -0.08764   1298.75004    909.67481      -999.25      0.43994     67.52067
        909.82800     15.34584    269.06990     63.64525    410.64320      0.04185   1299.87498    909.82244      -999.25      0.42343     65.94020
        909.98040     14.82977    268.87890     63.64525    387.03400      0.01617   1306.88902    909.97996      -999.25      0.46225     63.56953
        910.13280     13.53124    268.57520     63.64525    404.93460      0.03895   1296.37493    910.13740      -999.25      0.43546     69.18907
        910.28520     11.73999    268.66070     63.64525    379.78420     -0.20148   1299.25001    910.28536      -999.25      0.47290     75.24747
        910.43760      9.91159    268.75590     63.64525    382.06980      0.07077   1297.00013    910.43427      -999.25      0.47165     78.93483
        910.59000      8.55902    268.43560     63.64525    397.35000     -0.21736   1290.25001    910.58476      -999.25      0.45956     77.06140
        910.74240      7.84792    267.88170     63.64525    407.26750     -0.06803   1297.00013    910.74506      -999.25      0.45558     74.42757
        910.89480      8.17531    267.78370     63.64525    441.22610      0.11104   1299.25001    910.90385      -999.25      0.39747     77.85216
        911.04720      8.50270    268.03380     63.64525    450.76040      0.12144   1298.37506    911.05244      -999.25      0.38435     79.02289
        911.19960      8.83009    267.92760     63.64525    462.94820      0.12807   1298.12507    911.20103      -999.25      0.36085     77.96915
        911.35200      9.15748    268.36270     63.64525    453.00020      0.07575   1296.87513    911.35216      -999.25      0.36699     71.64734
        911.50440      9.79911    268.51160     63.64525    432.76520      0.00884   1295.49998    911.50170      -999.25      0.38185     67.19884
        911.65680     10.18535    268.71080     63.64525    406.86580      0.12831   1300.24997    911.64997      -999.25      0.42510     72.46708
        911.80920      9.99588    268.27630     63.64525    409.56200      0.10496   1301.77777    911.80650      -999.25      0.42607     75.62797
        911.96160      9.66656    268.64250     63.64525    407.67470      0.09443   1296.37493    911.96589      -999.25      0.42898     76.38888
        912.11400      9.30012    268.72270     63.64525    436.25230      0.01536   1302.87506    912.11733      -999.25      0.40069     67.11081
        912.26640      8.30543    268.27930     63.64525    428.98830      0.05233   1299.00003    912.26370      -999.25      0.40963     64.21342
        912.41880      7.11891    268.54540     63.64525    421.75780      0.17742   1286.88890    912.41779      -999.25      0.42554     60.52566
        912.57120      6.79904    268.41620     63.64525    400.80460      0.04372   1296.62492    912.57453      -999.25      0.45473     61.22810
        912.72360      7.10809    268.63360     63.64525    400.42700      0.10179   1308.74999    912.72090      -999.25      0.47218     63.86222
        912.87600      6.67349    269.02190     63.64525    374.89080      0.14112   1295.00000    912.87044      -999.25      0.50411     64.12531
        913.02840      5.72081    266.62890     63.64525    387.05690      0.08307   1292.11121    913.02937      -999.25      0.47678     72.17423
        913.18080      6.05638    275.52730     63.64525    376.75850      0.09861   1314.87491    913.18636      -999.25      0.49026     77.70577
        913.33320      7.18394    272.89640     63.64525    400.73340      0.13408   1322.49998    913.33399      -999.25      0.44936     83.17914
        913.48560      8.03115    272.77880     63.64525    374.06300      4.39793   1298.37506    913.48131      -999.25      0.50017     84.49603
        913.63800      8.81383    272.06050     63.64525    354.99210     -0.05909   1305.11101    913.63615      -999.25      0.54064     76.59371
        913.79040      9.04002    272.62360     63.64525    352.32480     -0.16030   1315.00013    913.78897      -999.25      0.55940     78.46688
        913.94280     12.51786    271.58910     63.64525    369.10570      0.09502   1303.88895    913.94320      -999.25      0.52216     76.35966
        914.09520     18.76289    272.96670     63.64525    427.46540     -0.23771   1301.87488    914.09599      -999.25      0.41505     76.35958
        914.24760     20.32826    268.47540     63.64525    449.99360     -0.05084   1310.11121    914.24970      -999.25      0.38314     71.12069
        914.40000     19.56778    268.27560     63.64525    454.93770      0.25734   1311.37509    914.40333      -999.25      0.38306     68.77896
        914.55240     19.76556    268.64430     63.64525    428.22630      0.10228   1293.55560    914.55534      -999.25      0.42254     72.99387
        914.70480     18.64087    268.37010     63.92487    432.40810     -0.00038   1295.62497    914.70940      -999.25      0.40792     69.30608
        914.85720     16.17405    268.09890     63.92487    457.22450      0.15852   1324.49988    914.85355      -999.25      0.38114     67.66717
        915.00960     13.65174    268.21210     63.92487    464.08640      0.13671   1313.77784    915.00831      -999.25      0.36852     66.61320
        915.16200     11.79306    268.38200     63.92487    467.15400      0.06681   1308.74999    915.16184      -999.25      0.35708     70.82764
        915.31440     10.65536    268.29610     63.92487    459.49890     -0.04886   1308.55553    915.31565      -999.25      0.36491     67.54984
        915.46680      9.82761    268.26210     63.92487    453.78380      0.06234   1314.12517    915.46950      -999.25      0.38156     67.28632
        915.61920      8.82473    268.14970     63.92487    441.95010      0.14666   1299.00003    915.62186      -999.25      0.40585     70.18401
        915.77160      7.95480    268.20950     63.92487    453.39080      0.11385   1317.12502    915.77843      -999.25      0.38692     76.27145
