~VERSION INFORMATION 
VERS  .    2.0                                     :CWLS Log ASCII Standard - VERSION 2.0
WRAP  .    NO                                      :One Line per Depth step
PROD  .    Schlumberger Technology Corp.           :LAS Producer
PROG  .    Horizon LASWriter 6.2.64464.3100        :LAS Program name and version
SOURCE.    1-Log[5]/Up                             :Run&Pass Information
CREA  .    01/05/2017                              :LAS Creation date {MM/DD/YYYY}
#--------------------------------------------------
~WELL INFORMATION 
#MNEM           .UNIT                      DATA            :DESCRIPTION
#----            ------          --------------            -----------------------------
STRT            .m                     16.91640            :START DEPTH
STOP            .m                   1777.89840            :STOP DEPTH
STEP            .m                       0.1524            :STEP
NULL            .                       -999.25            :NULL VALUE
COMP            .                      YPF S.A.            :COMPANY
WELL            .                 YPF.SC.LC-941            :WELL NAME
FLD             .                 LOMAS DEL CUY            :FIELD NAME
RIGN            .                                          :Rig Name
RIGTYP          .                                          :Rig Type
SON             .                                          :Service Order Number
SRVC            .                  Schlumberger            :SERVICE COMPANY
DATE            .                    01/05/2017            :LOG DATE(Composite Date for Composite LAP) (MM/DD/YYYY)
CLAB            .                    Provincia:            :County Label
CNTY            .                    SANTA CRUZ            :COUNTY
SLAB            .                          UWI:            :State/Province Label
STAT            .                 No disponible            :STATE or PROVINCE
PROV            .                 No disponible            :STATE or PROVINCE
CTRY            .                     ARGENTINA            :COUNTRY
CONT_REGION     .                                          :Continent Region
SECT            .                       RIGLESS            :Section
TOWN            .                NT Ground Level G.L       :Township
RANG            .                M.R Drilling Floor D.F    :Range
API             .                                          :API NUMBER
UWI             .                                          :UNIQUE WELL ID
LUL             .                  CANADON SECO            :Logging Unit Location
LUN             .                          7008            :Logging Unit Number
LOC             .                          ARCS            :FIELD LOCATION
FL1             .                X: 4.856.702,40           :Field Location Line 1
FL2             .                Y: 2.494.852,45           :Field Location Line 2
LATI            .deg                 0° 0' 0" N            :LATITUDE
LONG            .deg                 0° 0' 0" E            :LONGITUDE
PDAT            .                            GL            :Local Permanent Datum
LMF             .                            GL            :Logging Measured From
APD             .m                      0.00000            :Elevation of Depth Reference (LMF) Above Permanent Datum
EPD             .m                    573.57000            :Elevation of Permanent Datum (PDAT) above Mean Sea Level
EKB             .m                      5.30000            :Elevation of Kelly Bushing Above Permanent Datum
EDF             .m                      5.30000            :Elevation of Drill Floor Above Permanent Datum
EGL             .m                      0.00000            :Elevation of Ground Level Above Permanent Datum
ECF             .m                      -999.25            :Elevation of Casing Flange above Permanent Datum
#--------------------------------------------------
~CURVE INFORMATION
#MNEM           .UNIT                  API CODE            :DESCRIPTION
#----            ------          --------------            -----------------------------
DEPT            .m                                         :                                                        Depth Index
CFTC            .1/s                                       :        (HGNS-H)                (6in)                   Corrected Far Thermal Count Rate
GR              .gAPI                                      :        (HGNS-H)                (6in)                   Gamma Ray
TNPH            .m3/m3                                     :        (HGNS-H)                (6in)                   Thermal Neutron Porosity (Ratio Method) in Selected Lithology
CBL             .mV                                        :        (ASLT-A)                (6in)                   CBL Amplitude
CBLF            .mV                                        :        (ASLT-A)                (6in)                   CBL Amplitude (Fluid Compensated)
TT              .us                                        :        (ASLT-A)                (6in)                   Transit Time for CBL
CCL             .                                          :        (CAL-YA)                (1in)                   Casing Collar Locator Amplitude
#-------------------------------------------------------------
#            DEPT         CFTC           GR         TNPH          CBL         CBLF           TT          CCL 
#                     (HGNS-H)     (HGNS-H)     (HGNS-H)     (ASLT-A)     (ASLT-A)     (ASLT-A)     (CAL-YA) 
#                                                                                                            
#                        (6in)        (6in)        (6in)        (6in)        (6in)        (6in)        (1in) 
~ASCII
# ...
        952.95720    688.28690     59.72487      0.31155     44.17010     35.33608    280.97770      0.03362
        953.10960    677.24100     58.53053      0.31280     45.38591     36.30873    281.06630      0.02597
        953.26200    681.00950     57.54675      0.29285     45.61798     36.49438    281.05870      0.01742
        953.41440    641.25620     54.17450      0.31498     43.35609     34.68487    280.79170      0.02270
        953.56680    630.35940     53.92849      0.31616     39.63483     31.70786    280.99650      0.00537
        953.71920    609.90990     57.02027      0.31900     35.20161     28.16129    280.72670      0.01357
        953.87160    578.30990     60.88480      0.32692     29.63485     23.70788    280.25990      0.01580
        954.02400    515.15190     62.04438      0.36409     23.95975     19.16780    280.07760      0.01212
        954.17640    451.07350     63.37930      0.41347     21.01745     16.81396    279.46470      0.01396
        954.32880    418.73660     66.26008      0.42281     21.54425     17.23540    279.61790      0.02844
        954.48120    412.30920     68.05161      0.41632     23.42865     18.74292    279.27010     -0.00628
        954.63360    404.23750     68.96495      0.40966     25.08377     20.06702    279.21210     -0.00028
        954.78600    397.76010     67.55962      0.42190     26.57286     21.25829    279.31260      0.01563
        954.93840    402.59620     68.85974      0.42056     28.70366     22.96293    279.35360      0.01791
        955.09080    418.29030     70.40567      0.41560     30.32932     24.26346    279.69450     -0.00055
        955.24320    440.16210     73.49697      0.39305     30.70511     24.56409    280.00850      0.02731
        955.39560    446.37160     78.09910      0.39398     32.35300     25.88240    279.55610      0.01581
        955.54800    439.59290     85.54748      0.40666     35.67019     28.53615    279.89410      0.02064
        955.70040    440.85670     83.86148      0.40649     37.77065     30.21652    280.11150      0.02261
        955.85280    435.46960     81.40233      0.41364     37.98633     30.38906    280.05630      0.01907
        956.00520    428.42250     73.70808      0.41657     37.60578     30.08462    280.03980     -0.00942
        956.15760    443.30150     70.89736      0.39957     36.72447     29.37958    280.40000      0.01324
        956.31000    459.79270     71.28397      0.38332     34.83292     27.86633    280.27990     -0.00872
        956.46240    490.26320     71.28380      0.34093     32.58033     26.06426    280.06300      0.00346
        956.61480    474.41760     76.06180      0.36730     31.01791     24.81433    279.59650      0.01055
        956.76720    477.31060     76.16710      0.36993     29.74084     23.79267    279.63550      0.01083
        956.91960    461.60310     77.39706      0.39218     28.37505     22.70004    279.70020      0.02230
        957.07200    496.85860     73.77848      0.34662     27.97659     22.38128    279.97770      0.02400
        957.22440    470.92680     70.86221      0.37943     29.55729     23.64583    279.86910      0.01486
        957.37680    465.61670     68.15694      0.37183     32.02344     25.61875    280.16410      0.01181
        957.52920    423.89620     66.43540      0.43168     33.63400     26.90720    280.19630     -0.00251
        957.68160    436.86810     72.54868      0.40976     34.86318     27.89054    280.00050     -0.01126
        957.83400    444.02090     76.94021      0.40377     36.07942     28.86354    280.12160      0.01583
        957.98640    420.02530     80.87507      0.43174     36.21837     28.97470    280.22830      0.02883
        958.13880    406.31120     81.78850      0.45173     35.01917     28.01534    280.32890      0.02409
        958.29120    381.38590     79.11826      0.47648     33.03043     26.42435    280.29710      0.03258
        958.44360    366.29830     80.24265      0.48014     31.36327     25.09061    280.18640     -0.00628
        958.59600    367.91280     79.32921      0.46969     30.42459     24.33967    279.91910      0.02534
        958.74840    364.67520     87.05829      0.47784     29.27680     23.42144    279.71140      0.03405
        958.90080    413.94680     89.13100      0.39237     28.38736     22.70988    279.53370      0.04046
        959.05320    430.09670     83.58002      0.37218     28.42026     22.73620    279.39720      0.01938
        959.20560    433.32500     76.83492      0.37925     28.12564     22.50051    279.54530      0.01467
        959.35800    426.83470     73.14603      0.39202     27.02700     21.62160    279.34040      0.02319
        959.51040    424.58860     79.04823      0.38712     25.83524     20.66819    279.08180      0.02878
        959.66280    433.47780     79.53967      0.37353     24.89198     19.91359    279.09450      0.02616
        959.81520    424.24150     81.71831      0.39447     24.59003     19.67203    279.21980      0.01078
        959.96760    399.86620     79.89137      0.43225     24.91339     19.93071    279.33590      0.02598
        960.12000    390.05650     76.87032      0.44751     25.22900     20.18320    279.45430     -0.00349
        960.27240    361.34050     70.51083      0.51188     25.05750     20.04600    279.39240      0.01282
        960.42480    379.18320     64.74921      0.47781     24.85368     19.88294    279.38310     -0.00878
        960.57720    388.19050     70.22969      0.46491     25.70197     20.56157    279.62340      0.02090
        960.72960    419.67620     76.30754      0.42821     26.14629     20.91704    279.77020      0.02096
        960.88200    403.99390     85.26630      0.46008     24.71797     19.77438    279.35130      0.01030
        961.03440    400.77980     82.59671      0.46746     23.99190     19.19352    279.33210      0.00879
        961.18680    403.55730     81.43722      0.47153     23.60540     18.88432    279.70540     -0.01102
        961.33920    407.01580     77.81881      0.47070     20.51281     16.41024    279.35010      0.02041
        961.49160    414.14680     74.33996      0.44547     17.85673     14.28538    283.65870      0.02111
        961.64400    410.55430     71.00291      0.43106     18.20520     14.56416    284.00160      0.05589
        961.79640    424.63180     63.69510      0.40734     18.77196     15.01757    283.87730     -2.40923
        961.94880    414.26630     64.67955      0.42361     18.37669     14.70135    284.21280      0.05563
        962.10120    406.79330     64.39816      0.42605     18.03108     14.42486    284.02340     -0.05589
        962.25360    399.17070     71.63548      0.43909     20.69637     16.55710    279.55990     -0.00083
        962.40600    416.91400     74.09435      0.42883     26.37888     21.10310    280.25460      0.01314
        962.55840    441.41910     75.78047      0.40537     31.29486     25.03589    280.43980      0.04180
        962.71080    453.70800     71.07265      0.39566     36.65255     29.32204    280.65330      0.02553
        962.86320    461.80010     67.87567      0.38668     42.24444     33.79555    281.35890      0.01352
        963.01560    433.59810     63.09774      0.42972     44.63732     35.70986    281.35300      0.00474
        963.16800    443.14300     63.37875      0.42309     44.17024     35.33620    281.53090      0.02748
        963.32040    468.34050     64.64342      0.38311     42.28941     33.83153    281.34100      0.02358
        963.47280    480.33690     73.32142      0.37051     39.70499     31.76399    281.30720      0.01410
        963.62520    462.54570     75.00801      0.39396     36.53638     29.22910    280.93570     -0.01801
        963.77760    436.68000     70.05427      0.42832     33.60873     26.88699    281.30840      0.02639
        963.93000    451.21040     64.46809      0.40857     31.86039     25.48831    280.91790      0.00656
        964.08240    474.19180     65.97847      0.39096     31.59706     25.27765    280.91490      0.00691
